~VERSION INFORMATION
 VERS.                          2.0   : CWLS LOG ASCII STANDARD - VERSION 2.0
 WRAP.                          NO    : ONE LINE PER DEPTH STEP
#
~Well Information Section
#MNEM     .UNIT     DATA                DESCRIPTION
#-----    -----     --------            --------------
 STRT     .M        48.0000             : START DEPTH
 STOP     .M        1500.0000           : END DEPTH
 STEP     .M        0.1500              : INCREMENT DEPTH
 NULL     .         -999.2500           : NULL VALUE
 COMP     .                              :
 WELL     .         F02-1               : WELL NAME
 EKB      .M        30.0000             : KELLY BUSHING ELEVATION
 EGL      .M        0.0000              : GROUND LEVEL ELEVATION
 EPD      .M        0.0000              : PERMANENT DATUM ELEVATION
 FLD      .                              :
 LOC      . X = 606554.0000 Y = 6080126.0000: WELL LOCATION
 PROV     .                              :
 SRVC     .                              :
 PROV     .                              :
 DATE     .                              :
 API      .                              :
#
~Curve Information Section
#MNEM     .UNIT               Curve #DESCRIPTION
#-----    -----               ----   --------------
 DEPTH    .M                  : 1     DEPTH
 RHOB     .kg/m3              : 2     Density
 DT       .us/m               : 3     Sonic
 GR       .API                : 4     Gamma Ray
 AI       .(m/s)*(kg/m3)      : 5     P-Impedance
 AI_rel   .(m/s)*(kg/m3)      : 6     P-Impedance_rel
 PHIE     .fraction           : 7     Porosity
~A (ASCII LOG DATA)
# ...
    1399.3501          2159.4414           451.8451            69.6901       4779173.0000        313815.5625          -999.2500
    1399.5000          2155.6680           453.2503            70.8087       4756022.0000        313815.5625          -999.2500
    1399.6500          2157.0327           453.8617            70.8331       4752623.0000        313815.5625          -999.2500
    1399.8000          2165.7366           453.2763            71.0692       4777980.5000        313815.5625          -999.2500
    1399.9501          2171.9734           450.5622            71.0982       4820592.5000        313815.5625          -999.2500
    1400.1001          2156.7524           446.3896            71.4790       4831541.0000        313815.5625          -999.2500
    1400.2500          2136.8489           443.4807            71.0727       4818358.0000        313815.5625          -999.2500
    1400.4000          2173.2407           443.5422            71.0727       4899738.0000        313815.5625          -999.2500
    1400.5500          2190.3999           445.7995            71.0727       4913419.0000        313815.5625          -999.2500
    1400.7001          2189.8999           450.6680            67.6151       4859231.0000        313815.5625          -999.2500
    1400.8501          2186.3469           455.9422            64.6474       4795237.5000        313815.5625          -999.2500
    1401.0000          2186.6873           462.0693            64.6083       4732406.0000        313815.5625          -999.2500
    1401.1500          2166.5786           467.3774            64.6083       4635659.0000        313815.5625          -999.2500
    1401.3000          2171.8530           472.2504            64.6083       4598966.5000        313815.5625          -999.2500
    1401.4501          2162.0850           476.3379            64.5390       4539013.0000        313815.5625          -999.2500
    1401.6001          2149.2244           478.7571            64.2752       4489195.0000        313815.5625          -999.2500
    1401.7500          2144.8044           480.7176            62.2163       4461683.5000        313815.5625          -999.2500
    1401.9000          2131.0422           482.8292            61.9590       4413682.0000        313815.5625          -999.2500
    1402.0500          2128.4172           485.9844            61.9590       4379628.0000        313815.5625          -999.2500
    1402.2001          2157.5503           486.2181            62.3069       4437419.0000        313815.5625          -999.2500
    1402.3501          2162.8518           485.7570            62.6552       4452539.0000        313815.5625          -999.2500
    1402.5000          2187.0908           485.5444            63.2747       4504413.0000        313815.5625          -999.2500
    1402.6500          2187.6641           485.5857            63.4088       4505208.0000        313815.5625          -999.2500
    1402.8000          2166.0266           485.8031            63.4088       4458656.0000        313815.5625          -999.2500
    1402.9501          2161.3918           485.7994            64.3597       4449145.0000        313815.5625          -999.2500
    1403.1001          2156.1978           485.6338            64.6601       4439965.5000        313815.5625          -999.2500
    1403.2500          2158.4451           485.4159            64.6601       4446590.5000        308983.3125          -999.2500
    1403.4000          2148.2258           485.1883            64.4589       4427609.0000        192560.1406          -999.2500
    1403.5500          2136.6370           484.8661            63.6980       4406651.5000        146559.1406          -999.2500
    1403.7001          2137.2053           484.9793            62.2115       4406795.5000        146559.1406          -999.2500
    1403.8501          2141.7024           485.4655            61.2555       4411646.0000        146559.1406          -999.2500
    1404.0000          2158.5081           486.2749            61.0567       4438846.0000        146559.1406          -999.2500
    1404.1500          2173.9900           487.6896            61.0567       4457727.0000        146559.1406          -999.2500
    1404.3000          2177.3638           489.6102            60.5393       4447159.5000        146559.1406          -999.2500
    1404.4501          2171.6758           491.1796            60.9237       4421365.0000        146559.1406          -999.2500
    1404.6001          2156.9792           492.5553            61.3963       4379200.0000        146559.1406          -999.2500
    1404.7500          2131.7568           493.0390            60.7258       4323701.0000        146559.1406          -999.2500
    1404.9000          2108.5959           492.4885            60.2133       4281501.0000        146559.1406          -999.2500
    1405.0500          2104.6033           491.6822            60.8447       4280423.5000        146559.1406          -999.2500
    1405.2001          2120.3896           490.9008            61.7144       4319406.5000        146559.1406          -999.2500
    1405.3501          2146.9075           490.0609            64.6491       4380932.5000        146559.1406          -999.2500
    1405.5000          2146.7986           488.9628            67.5816       4390481.0000        146559.1406          -999.2500
    1405.6500          2125.8909           487.6739            68.3344       4359239.5000        146559.1406          -999.2500
    1405.8000          2125.3120           486.6567            68.9338       4367180.0000        146559.1406          -999.2500
    1405.9501          2143.3530           486.2037            69.9295       4408347.0000        146559.1406          -999.2500
    1406.1001          2157.6165           486.0564            70.9084       4439024.5000        146559.1406          -999.2500
    1406.2500          2160.2830           485.9042            70.9084       4445904.0000        146559.1406          -999.2500
    1406.4000          2161.9951           486.1224            70.6957       4447438.5000        146559.1406          -999.2500
    1406.5500          2150.9978           486.9221            70.3645       4417557.5000        146559.1406          -999.2500
    1406.7001          2139.8337           487.7717            70.3582       4386963.0000        146559.1406          -999.2500
    1406.8501          2129.8208           488.5161            70.3617       4359792.5000        146559.1406          -999.2500
    1407.0000          2114.3203           489.2401            71.0843       4321649.0000        146559.1406          -999.2500
    1407.1500          2116.5496           490.1325            72.5609       4318300.0000        146559.1406          -999.2500
    1407.3000          2130.4270           491.4407            72.5609       4335081.5000        146559.1406          -999.2500
    1407.4501          2127.4248           492.8293            70.9905       4316750.5000        124118.4609          -999.2500
    1407.6001          2135.2659           494.1831            66.8238       4320804.0000         53663.9375          -999.2500
    1407.7500          2131.5403           494.8805            66.1546       4307184.0000         18078.9648          -999.2500
    1407.9000          2134.4919           495.3174            65.2030       4309332.5000         18078.9648          -999.2500
    1408.0500          2154.1951           495.8629            64.6928       4344342.0000         18078.9648          -999.2500
    1408.2001          2144.2769           496.7032            63.9020       4317037.0000         18078.9648          -999.2500
    1408.3501          2130.9697           497.9162            62.8358       4279768.5000         18078.9648          -999.2500
    1408.5000          2143.0000           498.8953            61.7509       4295498.0000         18078.9648          -999.2500
    1408.6500          2143.1230           497.1424            61.3538       4310892.0000         18078.9648          -999.2500
