~VERSION INFORMATION
 VERS.                          2.0   : CWLS LOG ASCII STANDARD - VERSION 2.0
 WRAP.                          NO    : ONE LINE PER DEPTH STEP
#
~Well Information Section
#MNEM     .UNIT     DATA                DESCRIPTION
#-----    -----     --------            --------------
 STRT     .M        48.0000             : START DEPTH
 STOP     .M        1500.0000           : END DEPTH
 STEP     .M        0.1500              : INCREMENT DEPTH
 NULL     .         -999.2500           : NULL VALUE
 COMP     .                              :
 WELL     .         F02-1               : WELL NAME
 EKB      .M        30.0000             : KELLY BUSHING ELEVATION
 EGL      .M        0.0000              : GROUND LEVEL ELEVATION
 EPD      .M        0.0000              : PERMANENT DATUM ELEVATION
 FLD      .                              :
 LOC      . X = 606554.0000 Y = 6080126.0000: WELL LOCATION
 PROV     .                              :
 SRVC     .                              :
 PROV     .                              :
 DATE     .                              :
 API      .                              :
#
~Curve Information Section
#MNEM     .UNIT               Curve #DESCRIPTION
#-----    -----               ----   --------------
 DEPTH    .M                  : 1     DEPTH
 RHOB     .kg/m3              : 2     Density
 DT       .us/m               : 3     Sonic
 GR       .API                : 4     Gamma Ray
 AI       .(m/s)*(kg/m3)      : 5     P-Impedance
 AI_rel   .(m/s)*(kg/m3)      : 6     P-Impedance_rel
 PHIE     .fraction           : 7     Porosity
~A (ASCII LOG DATA)
# ...
     917.4000          2202.8230           464.8809            54.5329       4738472.5000        -61817.4727             0.2795
     917.5500          2191.7986           465.9643            53.7642       4703813.5000        -61817.4727             0.2864
     917.7000          2188.7949           467.2508            52.7365       4684417.5000        -61817.4727             0.2882
     917.8500          2180.3469           467.3156            52.3514       4665679.0000        -61817.4727             0.2935
     918.0001          2182.1267           466.5215            52.3514       4677453.0000        -61817.4727             0.2924
     918.1500          2184.4424           465.4245            53.0768       4693447.5000        -61817.4727             0.2910
     918.3000          2207.5730           463.7970            53.6400       4759875.5000        -61817.4727             0.2765
     918.4500          2222.7683           461.8664            54.5983       4812607.5000        -61817.4727             0.2670
     918.6000          2208.9465           461.1417            55.8476       4790170.0000        -61817.4727             0.2757
     918.7501          2202.1084           461.2103            57.0411       4774629.5000        -61817.4727             0.2800
     918.9000          2203.6985           462.4225            57.7246       4765576.5000        -61817.4727             0.2789
     919.0500          2194.6606           465.8891            58.0867       4710890.0000        -61817.4727             0.2846
     919.2000          2196.6069           471.5920            58.2579       4657967.5000        -61817.4727             0.2834
     919.3500          2206.0601           474.4691            58.0528       4649536.0000        -61817.4727             0.2775
     919.5001          2204.8142           473.6009            57.1709       4655427.5000        -61817.4727             0.2783
     919.6500          2207.6750           471.3834            56.5107       4683488.0000        -61817.4727             0.2764
     919.8000          2218.2607           468.3498            56.5107       4736416.5000        -61817.4727             0.2698
     919.9500          2218.1116           464.6599            56.8818       4773679.0000        -61817.4727             0.2699
     920.1000          2209.7092           460.4268            57.3056       4799329.0000        -61817.4727             0.2752
     920.2501          2214.0027           458.4041            57.3056       4829796.5000        -61817.4727             0.2725
     920.4000          2220.1196           459.2777            57.3056       4833961.5000        -61817.4727             0.2687
     920.5500          2208.6548           461.0460            57.2157       4790606.0000        -88757.4375             0.2758
     920.7000          2199.6482           463.3687            56.8264       4747103.0000       -181066.4219             0.2815
     920.8500          2194.9158           465.2572            56.3475       4717671.5000       -263481.5625             0.2844
     921.0001          2179.2595           467.6457            56.1698       4660231.0000       -263481.5625             0.2942
     921.1500          2168.5015           471.2964            56.0809       4601168.0000       -263481.5625             0.3009
     921.3000          2173.0774           473.7855            56.0800       4586630.5000       -263481.5625             0.2981
     921.4500          2177.4851           476.5437            56.0800       4569431.5000       -263481.5625             0.2953
     921.6000          2179.8682           480.7291            56.1206       4534514.0000       -263481.5625             0.2938
     921.7501          2187.5750           482.9001            56.4341       4530078.0000       -263481.5625             0.2890
     921.9000          2187.9336           482.5538            57.1828       4534078.5000       -263481.5625             0.2888
     922.0500          2187.9143           481.1801            57.7263       4546972.5000       -263481.5625             0.2888
     922.2000          2196.3650           481.7101            57.8860       4559531.5000       -263481.5625             0.2836
     922.3500          2186.9712           483.2792            58.2846       4525318.0000       -263481.5625             0.2894
     922.5001          2178.6533           486.2564            57.7251       4480520.5000       -263481.5625             0.2946
     922.6500          2167.9617           488.7455            57.4087       4435769.0000       -263481.5625             0.3013
     922.8000          2178.1807           488.4001            55.9002       4459855.0000       -263481.5625             0.2949
     922.9500          2199.0120           486.8684            55.8943       4516627.0000       -263481.5625             0.2819
     923.1000          2176.2671           484.6514            55.6654       4490378.5000       -263481.5625             0.2961
     923.2501          2169.4465           485.2586            54.3284       4470692.0000       -263481.5625             0.3003
     923.4000          2188.3740           487.2317            54.3284       4491447.5000       -263481.5625             0.2885
     923.5500          2195.5012           489.5403            54.3284       4484822.5000       -263481.5625             0.2840
     923.7000          2201.1316           491.2354            54.3620       4480820.0000       -263481.5625             0.2806
     923.8500          2184.4480           492.9820            54.8478       4431085.5000       -263481.5625             0.2909
     924.0001          2206.0837           495.8651            55.1683       4448961.0000       -263705.9688             0.2774
     924.1500          2213.9851           494.8736            55.1638       4473840.0000       -270370.2500             0.2725
     924.3000          2198.2002           491.1056            54.8321       4476023.5000       -288244.4062             0.2824
     924.4500          2198.6001           486.0147            54.8321       4523731.5000       -288244.4062             0.2821
     924.6000          2206.3940           477.1495            54.5792       4624139.5000       -288244.4062             0.2773
     924.7501          2197.8931           470.4436            54.5758       4671981.5000       -288244.4062             0.2826
     924.9000          2186.9197           468.7769            55.0288       4665159.5000       -288244.4062             0.2895
     925.0500          2172.8616           469.0293            55.3199       4632680.0000       -288244.4062             0.2982
     925.2000          2176.0410           470.4747            55.8967       4625203.5000       -288244.4062             0.2962
     925.3500          2182.6572           470.3645            55.9451       4640353.5000       -288244.4062             0.2921
     925.5001          2191.0161           470.4529            55.9451       4657248.0000       -288244.4062             0.2869
     925.6500          2195.7576           472.5781            55.7965       4646346.0000       -288244.4062             0.2839
     925.8000          2182.2166           475.4511            54.5422       4589832.5000       -288244.4062             0.2924
     925.9500          2170.8911           479.0252            54.3307       4531953.0000       -288244.4062             0.2994
     926.1000          2164.8184           482.2108            54.9676       4489398.0000       -288244.4062             0.3032
     926.2501          2172.0481           484.6872            55.1011       4481341.5000       -288244.4062             0.2987
     926.4000          2176.1431           487.6671            55.1011       4462378.5000       -288244.4062             0.2962
     926.5500          2180.3352           488.2926            55.1011       4465223.0000       -288244.4062             0.2936
     926.7000          2190.0671           488.2135            54.0308       4485880.5000       -288244.4062             0.2874
