~VERSION INFORMATION
 VERS.                          2.0   : CWLS LOG ASCII STANDARD - VERSION 2.0
 WRAP.                          NO    : ONE LINE PER DEPTH STEP
#
~Well Information Section
#MNEM     .UNIT     DATA                DESCRIPTION
#-----    -----     --------            --------------
 STRT     .M        48.0000             : START DEPTH
 STOP     .M        1500.0000           : END DEPTH
 STEP     .M        0.1500              : INCREMENT DEPTH
 NULL     .         -999.2500           : NULL VALUE
 COMP     .                              :
 WELL     .         F02-1               : WELL NAME
 EKB      .M        30.0000             : KELLY BUSHING ELEVATION
 EGL      .M        0.0000              : GROUND LEVEL ELEVATION
 EPD      .M        0.0000              : PERMANENT DATUM ELEVATION
 FLD      .                              :
 LOC      . X = 606554.0000 Y = 6080126.0000: WELL LOCATION
 PROV     .                              :
 SRVC     .                              :
 PROV     .                              :
 DATE     .                              :
 API      .                              :
#
~Curve Information Section
#MNEM     .UNIT               Curve #DESCRIPTION
#-----    -----               ----   --------------
 DEPTH    .M                  : 1     DEPTH
 RHOB     .kg/m3              : 2     Density
 DT       .us/m               : 3     Sonic
 GR       .API                : 4     Gamma Ray
 AI       .(m/s)*(kg/m3)      : 5     P-Impedance
 AI_rel   .(m/s)*(kg/m3)      : 6     P-Impedance_rel
 PHIE     .fraction           : 7     Porosity
~A (ASCII LOG DATA)
# ...
     340.9500          1455.5244           549.7249            22.1861       2648007.7500       -225771.0000          -999.2500
     341.1000          1442.2156           535.5362            22.2492       2693083.2500       -225771.0000          -999.2500
     341.2500          1413.7784           525.1974            22.4903       2691936.2500       -225771.0000          -999.2500
     341.4000          1402.0811           527.1783            22.7998       2659597.5000       -225771.0000          -999.2500
     341.5500          1414.9512           526.6924            23.6590       2686501.2500       -225771.0000          -999.2500
     341.7000          1464.5995           526.7817            24.1908       2780112.5000       -225771.0000          -999.2500
     341.8500          1550.8881           529.7205            24.1908       2927800.0000       -225771.0000          -999.2500
     342.0000          1595.6965           527.9048            23.9722       3022693.0000       -225771.0000          -999.2500
     342.1500          1642.0039           528.2444            22.4561       3108410.2500       -225771.0000          -999.2500
     342.3000          1655.2637           529.6816            21.7222       3125048.2500       -225771.0000          -999.2500
     342.4500          1633.3438           532.9143            21.3682       3065004.5000       -225771.0000          -999.2500
     342.6000          1588.4919           537.6758            21.2580       2954462.5000       -225771.0000          -999.2500
     342.7500          1561.1111           545.3886            20.8574       2862430.7500       -225771.0000          -999.2500
     342.9000          1548.0858           552.5724            20.8574       2801611.7500       -222920.3750          -999.2500
     343.0500          1571.4717           549.2192            20.8810       2861293.5000       -153400.5312          -999.2500
     343.2000          1562.8729           541.3338            21.7400       2887073.2500       -108649.2500          -999.2500
     343.3500          1514.5000           531.7926            22.0507       2847914.7500       -108649.2500          -999.2500
     343.5000          1448.9431           523.7303            22.4564       2766573.7500       -108649.2500          -999.2500
     343.6500          1452.5881           525.2706            24.1268       2765409.2500       -108649.2500          -999.2500
     343.8000          1469.4062           532.7303            26.3671       2758259.5000       -108649.2500          -999.2500
     343.9500          1500.4888           537.1653            26.6866       2793331.5000       -108649.2500          -999.2500
     344.1000          1519.8083           540.0670            27.2172       2814103.7500       -108649.2500          -999.2500
     344.2500          1522.1133           538.3895            27.7418       2827164.0000       -108649.2500          -999.2500
     344.4000          1539.0854           531.3611            27.7877       2896601.5000       -108649.2500          -999.2500
     344.5500          1579.3871           528.9240            28.4432       2986072.0000       -108649.2500          -999.2500
     344.7000          1616.7559           525.6485            29.6919       3075806.2500       -108649.2500          -999.2500
     344.8500          1641.7690           525.6889            32.5816       3123075.0000       -108649.2500          -999.2500
     345.0000          1656.1505           530.3956            35.5868       3122493.7500       -108649.2500          -999.2500
     345.1500          1675.0532           530.4860            36.1665       3157595.5000       -108649.2500          -999.2500
     345.3000          1681.7007           528.8182            36.1841       3180121.2500       -108649.2500          -999.2500
     345.4500          1689.5597           526.6691            36.1097       3208032.0000       -108649.2500          -999.2500
     345.6000          1686.2089           525.0532            35.7736       3211498.2500       -108649.2500          -999.2500
     345.7500          1653.6349           523.6324            35.0822       3157971.7500       -108649.2500          -999.2500
     345.9000          1624.6537           521.3369            33.2321       3116288.7500       -108649.2500          -999.2500
     346.0500          1589.9265           517.9518            32.1481       3069566.0000       -108649.2500          -999.2500
     346.2000          1547.7881           517.6985            30.4702       2989789.2500       -108649.2500          -999.2500
     346.3500          1518.5945           520.9091            28.1711       2915397.5000       -108649.2500          -999.2500
     346.5000          1482.2417           521.2714            27.4041       2843467.5000       -108649.2500          -999.2500
     346.6500          1486.7559           519.2543            27.4041       2863322.5000       -108649.2500          -999.2500
     346.8000          1506.3932           514.1436            27.3515       2930110.7500        -89822.4453          -999.2500
     346.9500          1494.5988           506.3033            27.3219       2951967.2500         23412.4258          -999.2500
     347.1000          1474.7140           503.4337            27.7249       2929321.0000         84515.1250          -999.2500
     347.2500          1469.6865           507.6483            27.9862       2895197.5000         84515.1250          -999.2500
     347.4000          1472.7365           516.3110            27.0742       2852665.2500         84515.1250          -999.2500
     347.5500          1482.0737           522.9485            26.3958       2834063.2500         84515.1250          -999.2500
     347.7000          1527.1886           524.6566            26.3958       2910839.5000         84515.1250          -999.2500
     347.8500          1552.1727           520.6548            24.6993       2981251.2500         84515.1250          -999.2500
     348.0000          1531.5376           514.3359            23.1751       2977642.2500         84515.1250          -999.2500
     348.1500          1500.0902           512.5485            23.1751       2926794.5000         84515.1250          -999.2500
     348.3000          1485.9136           513.9511            24.0890       2891151.0000         84515.1250          -999.2500
     348.4500          1494.8606           516.3294            25.5652       2895176.7500         84515.1250          -999.2500
     348.6000          1507.3636           520.2532            26.5798       2897344.5000         84515.1250          -999.2500
     348.7500          1545.3555           522.3988            27.7593       2958219.2500         84515.1250          -999.2500
     348.9000          1599.8257           521.8596            28.5594       3065650.7500         84515.1250          -999.2500
     349.0500          1624.3398           520.3916            28.5594       3121398.0000         84515.1250          -999.2500
     349.2000          1620.6671           517.3342            27.1600       3132739.0000         84515.1250          -999.2500
     349.3500          1600.2280           515.1075            24.8234       3106594.7500         84515.1250          -999.2500
     349.5000          1550.4932           516.0084            24.5368       3004926.5000         84515.1250          -999.2500
     349.6500          1512.9009           517.4457            24.3851       2923788.7500         84515.1250          -999.2500
     349.8000          1530.7012           517.0416            24.3851       2960520.0000         84515.1250          -999.2500
     349.9500          1539.0297           515.1874            24.4447       2987249.0000         84515.1250          -999.2500
     350.1000          1517.7500           511.9985            24.9767       2964373.2500         84515.1250          -999.2500
     350.2500          1527.2806           511.4059            26.0482       2986428.2500         84515.1250          -999.2500
