~VERSION INFORMATION
 VERS.                          2.0   : CWLS LOG ASCII STANDARD - VERSION 2.0
 WRAP.                          NO    : ONE LINE PER DEPTH STEP
#
~Well Information Section
#MNEM     .UNIT     DATA                DESCRIPTION
#-----    -----     --------            --------------
 STRT     .M        48.0000             : START DEPTH
 STOP     .M        1500.0000           : END DEPTH
 STEP     .M        0.1500              : INCREMENT DEPTH
 NULL     .         -999.2500           : NULL VALUE
 COMP     .                              :
 WELL     .         F02-1               : WELL NAME
 EKB      .M        30.0000             : KELLY BUSHING ELEVATION
 EGL      .M        0.0000              : GROUND LEVEL ELEVATION
 EPD      .M        0.0000              : PERMANENT DATUM ELEVATION
 FLD      .                              :
 LOC      . X = 606554.0000 Y = 6080126.0000: WELL LOCATION
 PROV     .                              :
 SRVC     .                              :
 PROV     .                              :
 DATE     .                              :
 API      .                              :
#
~Curve Information Section
#MNEM     .UNIT               Curve #DESCRIPTION
#-----    -----               ----   --------------
 DEPTH    .M                  : 1     DEPTH
 RHOB     .kg/m3              : 2     Density
 DT       .us/m               : 3     Sonic
 GR       .API                : 4     Gamma Ray
 AI       .(m/s)*(kg/m3)      : 5     P-Impedance
 AI_rel   .(m/s)*(kg/m3)      : 6     P-Impedance_rel
 PHIE     .fraction           : 7     Porosity
~A (ASCII LOG DATA)
# ...
     237.0000          -999.2500           514.7474            12.8660       3889286.0000          4901.8936          -999.2500
     237.1500          -999.2500           514.7401            12.8546       3889342.2500          4901.8936          -999.2500
     237.3000          -999.2500           514.7326            12.7084       3889398.2500          4901.8936          -999.2500
     237.4500          -999.2500           514.7252            12.1591       3889454.0000          4901.8936          -999.2500
     237.6000          -999.2500           514.7178            12.2060       3889510.0000          4901.8936          -999.2500
     237.7500          -999.2500           514.7104            12.6000       3889566.5000          4901.8936          -999.2500
     237.9000          -999.2500           514.7032            11.8993       3889620.5000          4901.8936          -999.2500
     238.0500          -999.2500           514.6955            11.9203       3889678.5000          4901.8936          -999.2500
     238.2000          -999.2500           514.6884            12.3605       3889732.2500          4901.8936          -999.2500
     238.3500          -999.2500           514.6810            12.6687       3889788.5000          4901.8936          -999.2500
     238.5000          -999.2500           514.6736            13.2480       3889844.2500          4901.8936          -999.2500
     238.6500          -999.2500           514.6660            13.6713       3889901.7500          4901.8936          -999.2500
     238.8000          -999.2500           514.6586            13.6713       3889958.0000          4901.8936          -999.2500
     238.9500          -999.2500           514.6512            13.6713       3890013.2500          4901.8936          -999.2500
     239.1000          -999.2500           514.6440            14.2343       3890067.5000          4901.8936          -999.2500
     239.2500          -999.2500           514.6367            14.6316       3890123.2500          4901.8936          -999.2500
     239.4000          -999.2500           514.6292            14.6580       3890180.0000          4901.8936          -999.2500
     239.5500          -999.2500           514.6218            14.6580       3890235.7500          4901.8936          -999.2500
     239.7000          -999.2500           514.6144            13.6241       3890291.7500          4901.8936          -999.2500
     239.8500          -999.2500           514.6069            13.4920       3890348.2500          4901.8936          -999.2500
     240.0000          -999.2500           514.5995            13.4920       3890404.2500          4901.8936          -999.2500
     240.1500          -999.2500           514.5923            14.3805       3890458.7500          4901.8936          -999.2500
     240.3000          -999.2500           514.5849            14.9799       3890514.5000         46077.8359          -999.2500
     240.4500          -999.2500           514.5776            15.0701       3890570.2500         65982.6562          -999.2500
     240.6000          -999.2500           514.5701            15.0701       3890626.2500         68684.1172          -999.2500
     240.7500          -999.2500           514.5627            14.8684       3890682.7500         68684.1172          -999.2500
     240.9000          -999.2500           514.5553            14.5223       3890738.2500         68684.1172          -999.2500
     241.0500          -999.2500           514.5479            14.2650       3890794.7500         68684.1172          -999.2500
     241.2000          -999.2500           514.5407            14.2084       3890849.0000         68684.1172          -999.2500
     241.3500          -999.2500           514.5333            14.2084       3890904.5000         68684.1172          -999.2500
     241.5000          -999.2500           514.5259            14.7597       3890960.5000         68684.1172          -999.2500
     241.6500          -999.2500           514.5185            15.0035       3891017.0000         68684.1172          -999.2500
     241.8000          -999.2500           514.5110            15.2277       3891073.0000         68684.1172          -999.2500
     241.9500          -999.2500           514.5037            15.4074       3891129.0000         68684.1172          -999.2500
     242.1000          -999.2500           514.4962            15.3781       3891185.7500         68684.1172          -999.2500
     242.2500          -999.2500           514.4890            15.1541       3891240.2500         68684.1172          -999.2500
     242.4000          -999.2500           514.4817            15.2814       3891295.2500         68684.1172          -999.2500
     242.5500          -999.2500           514.4742            15.4443       3891351.5000         68684.1172          -999.2500
     242.7000          -999.2500           514.4669            15.7623       3891407.5000         68684.1172          -999.2500
     242.8500          -999.2500           514.4594            16.0837       3891464.0000         68684.1172          -999.2500
     243.0000          -999.2500           514.4520            16.7067       3891519.7500         68684.1172          -999.2500
     243.1500          -999.2500           514.4446            17.1964       3891576.0000         68684.1172          -999.2500
     243.3000          -999.2500           514.4371            17.1964       3891632.2500         68684.1172          -999.2500
     243.4500          -999.2500           514.4299            16.5248       3891687.0000         68684.1172          -999.2500
     243.6000          -999.2500           514.4226            14.8440       3891742.0000         68684.1172          -999.2500
     243.7500          -999.2500           514.4152            13.5238       3891798.0000         68684.1172          -999.2500
     243.9000          -999.2500           514.4078            13.2368       3891854.2500         68684.1172          -999.2500
     244.0500          -999.2500           514.4003            13.2368       3891910.7500         68684.1172          -999.2500
     244.2000          -999.2500           514.3929            14.1646       3891966.7500         73860.1719          -999.2500
     244.3500          -999.2500           514.3854            15.5183       3892023.2500         84608.6328          -999.2500
     244.5000          -999.2500           514.3782            15.7713       3892078.2500         89538.0156          -999.2500
     244.6500          -999.2500           514.3709            16.1958       3892133.0000         89538.0156          -999.2500
     244.8000          -999.2500           514.3635            16.1500       3892189.5000         89538.0156          -999.2500
     244.9500          -999.2500           514.3561            15.8316       3892245.0000         89538.0156          -999.2500
     245.1000          -999.2500           514.3487            14.9343       3892301.5000         89538.0156          -999.2500
     245.2500          -999.2500           514.3412            14.0167       3892357.7500         89538.0156          -999.2500
     245.4000          -999.2500           514.3339            14.0167       3892414.0000         89538.0156          -999.2500
     245.5500          -999.2500           514.3265            14.1917       3892469.2500         89538.0156          -999.2500
     245.7000          -999.2500           514.3193            14.8814       3892523.5000         89538.0156          -999.2500
     245.8500          -999.2500           514.3119            15.6225       3892579.7500         89538.0156          -999.2500
     246.0000          -999.2500           514.3045            16.2993       3892636.0000         89538.0156          -999.2500
     246.1500          -999.2500           514.2970            17.5379       3892692.5000         89538.0156          -999.2500
     246.3000          -999.2500           514.2896            17.5379       3892748.5000         89538.0156          -999.2500
