~VERSION INFORMATION
 VERS.                          2.0   : CWLS LOG ASCII STANDARD - VERSION 2.0
 WRAP.                          NO    : ONE LINE PER DEPTH STEP
#
~Well Information Section
#MNEM     .UNIT     DATA                DESCRIPTION
#-----    -----     --------            --------------
 STRT     .M        48.0000             : START DEPTH
 STOP     .M        1500.0000           : END DEPTH
 STEP     .M        0.1500              : INCREMENT DEPTH
 NULL     .         -999.2500           : NULL VALUE
 COMP     .                              :
 WELL     .         F02-1               : WELL NAME
 EKB      .M        30.0000             : KELLY BUSHING ELEVATION
 EGL      .M        0.0000              : GROUND LEVEL ELEVATION
 EPD      .M        0.0000              : PERMANENT DATUM ELEVATION
 FLD      .                              :
 LOC      . X = 606554.0000 Y = 6080126.0000: WELL LOCATION
 PROV     .                              :
 SRVC     .                              :
 PROV     .                              :
 DATE     .                              :
 API      .                              :
#
~Curve Information Section
#MNEM     .UNIT               Curve #DESCRIPTION
#-----    -----               ----   --------------
 DEPTH    .M                  : 1     DEPTH
 RHOB     .kg/m3              : 2     Density
 DT       .us/m               : 3     Sonic
 GR       .API                : 4     Gamma Ray
 AI       .(m/s)*(kg/m3)      : 5     P-Impedance
 AI_rel   .(m/s)*(kg/m3)      : 6     P-Impedance_rel
 PHIE     .fraction           : 7     Porosity
~A (ASCII LOG DATA)
# ...
    1304.8501          1819.8278           489.5413            55.7555       3717412.2500       -159833.0938          -999.2500
    1305.0000          1832.6870           491.4394            55.7555       3729224.2500       -159833.0938          -999.2500
    1305.1500          1838.2632           490.2354            55.7616       3749758.0000       -159833.0938          -999.2500
    1305.3000          1849.9000           488.0991            56.1959       3790009.2500       -159833.0938          -999.2500
    1305.4501          1862.7000           488.3786            56.9064       3814049.2500       -159833.0938          -999.2500
    1305.6001          1860.0352           492.8508            57.7888       3774038.0000       -159833.0938          -999.2500
    1305.7500          1861.4512           497.6831            59.1708       3740244.5000       -159833.0938          -999.2500
    1305.9000          1856.0645           504.4178            60.6887       3679655.0000       -153331.0625          -999.2500
    1306.0500          1856.2667           506.8074            61.5785       3662670.7500        -98977.0391          -999.2500
    1306.2001          1846.2692           504.6146            63.1633       3658769.7500        -95113.8281          -999.2500
    1306.3501          1851.6600           502.4222            63.5838       3685476.7500        -95113.8281          -999.2500
    1306.5000          1866.4132           501.5260            65.0754       3721474.2500        -95113.8281          -999.2500
    1306.6500          1891.4236           500.4862            65.8545       3779187.0000        -95113.8281          -999.2500
    1306.8000          1909.6515           498.5427            66.2013       3830494.5000        -95113.8281          -999.2500
    1306.9501          1935.9867           495.4924            66.7316       3907270.2500        -95113.8281          -999.2500
    1307.1001          1964.0839           492.3050            66.3457       3989645.0000        -95113.8281          -999.2500
    1307.2500          2012.8202           489.5602            65.9997       4111602.0000        -95113.8281          -999.2500
    1307.4000          2029.8054           487.1201            64.3326       4166981.5000        -95113.8281          -999.2500
    1307.5500          2032.1964           481.2536            60.0822       4222871.0000        -95113.8281          -999.2500
    1307.7001          2026.2443           472.2386            56.8584       4290990.5000        -95113.8281          -999.2500
    1307.8501          2001.2939           467.1058            55.3482       4284407.5000        -95113.8281          -999.2500
    1308.0000          1943.5415           466.6187            53.4206       4165200.7500        -95113.8281          -999.2500
    1308.1500          1881.4138           468.1610            49.4563       4018855.5000        -95113.8281          -999.2500
    1308.3000          1850.3430           476.2093            46.6624       3886198.7500        -95113.8281          -999.2500
    1308.4501          1830.1512           483.4081            44.8063       3786160.7500        -95113.8281          -999.2500
    1308.6001          1810.4894           488.2959            43.9509       3707928.0000        -95113.8281          -999.2500
    1308.7500          1806.3306           492.8102            43.8091       3665426.0000        -95113.8281          -999.2500
    1308.9000          1826.9076           497.1040            43.8091       3675041.2500        -95113.8281          -999.2500
    1309.0500          1848.7750           499.9083            45.1059       3698209.2500        -95113.8281          -999.2500
    1309.2001          1855.5000           500.4128            46.2435       3707939.7500        -95113.8281          -999.2500
    1309.3501          1859.6123           498.1099            47.4677       3733409.2500        -95113.8281          -999.2500
    1309.5000          1864.0304           493.9219            48.2425       3774036.7500        -95113.8281          -999.2500
    1309.6500          1872.2269           490.9647            48.9207       3813394.5000        -95113.8281          -999.2500
    1309.8000          1865.7836           489.1585            48.8366       3814240.2500        -95113.8281          -999.2500
    1309.9501          1841.9730           487.9090            48.9141       3775225.0000        -95113.8281          -999.2500
    1310.1001          1830.2056           487.7727            49.4609       3752169.0000        -95113.8281          -999.2500
    1310.2500          1835.4210           489.3553            49.4609       3750696.0000        -23112.8066          -999.2500
    1310.4000          1843.1519           492.9638            49.2247       3738968.0000         82674.2734          -999.2500
    1310.5500          1849.9976           496.4518            49.1882       3726441.7500        115950.4766          -999.2500
    1310.7001          1852.1469           499.1851            49.5063       3710391.0000        115950.4766          -999.2500
    1310.8501          1845.8669           502.4736            50.1613       3673636.2500        115950.4766          -999.2500
    1311.0000          1846.6859           503.5525            50.9620       3667370.7500        115950.4766          -999.2500
    1311.1500          1862.3853           500.9993            50.9620       3717414.0000        115950.4766          -999.2500
    1311.3000          1884.2272           499.0231            50.9620       3775864.5000        115950.4766          -999.2500
    1311.4501          1905.0079           498.9726            50.9620       3817842.2500        115950.4766          -999.2500
    1311.6001          1928.2909           501.4159            51.4202       3845626.2500        115950.4766          -999.2500
    1311.7500          1957.5309           502.9029            52.8649       3892511.7500        115950.4766          -999.2500
    1311.9000          1982.9041           499.5940            54.7065       3969372.2500        115950.4766          -999.2500
    1312.0500          2014.2579           492.7337            56.8510       4088324.2500        115950.4766          -999.2500
    1312.2001          2028.5001           483.4888            59.0467       4196048.5000        115950.4766          -999.2500
    1312.3501          2031.2656           474.2767            60.0646       4282934.0000        115950.4766          -999.2500
    1312.5000          2024.8612           471.0139            60.1342       4298953.5000        115950.4766          -999.2500
    1312.6500          2010.5219           472.7465            60.3468       4253018.5000        115950.4766          -999.2500
    1312.8000          1983.8168           477.7884            60.3468       4152411.2500        115950.4766          -999.2500
    1312.9501          1960.2421           484.2101            60.2350       4048340.2500        115950.4766          -999.2500
    1313.1001          1969.8690           487.7444            59.7884       4038742.2500        115950.4766          -999.2500
    1313.2500          1967.2634           489.3703            59.7267       4019992.7500        115950.4766          -999.2500
    1313.4000          1956.3003           489.3533            59.4189       3997732.0000        115950.4766          -999.2500
    1313.5500          1948.2170           487.5460            59.4682       3996009.0000        115950.4766          -999.2500
    1313.7001          1920.7595           490.6999            59.8255       3914577.5000        115950.4766          -999.2500
    1313.8501          1895.7056           499.0317            60.1215       3798780.5000        115950.4766          -999.2500
    1314.0000          1902.5037           502.8030            60.3558       3783797.5000        115950.4766          -999.2500
    1314.1500          1903.6586           504.0567            60.6579       3776684.2500        115950.4766          -999.2500
