~VERSION INFORMATION
 VERS.                          2.0   : CWLS LOG ASCII STANDARD - VERSION 2.0
 WRAP.                          NO    : ONE LINE PER DEPTH STEP
#
~Well Information Section
#MNEM     .UNIT     DATA                DESCRIPTION
#-----    -----     --------            --------------
 STRT     .M        48.0000             : START DEPTH
 STOP     .M        1500.0000           : END DEPTH
 STEP     .M        0.1500              : INCREMENT DEPTH
 NULL     .         -999.2500           : NULL VALUE
 COMP     .                              :
 WELL     .         F02-1               : WELL NAME
 EKB      .M        30.0000             : KELLY BUSHING ELEVATION
 EGL      .M        0.0000              : GROUND LEVEL ELEVATION
 EPD      .M        0.0000              : PERMANENT DATUM ELEVATION
 FLD      .                              :
 LOC      . X = 606554.0000 Y = 6080126.0000: WELL LOCATION
 PROV     .                              :
 SRVC     .                              :
 PROV     .                              :
 DATE     .                              :
 API      .                              :
#
~Curve Information Section
#MNEM     .UNIT               Curve #DESCRIPTION
#-----    -----               ----   --------------
 DEPTH    .M                  : 1     DEPTH
 RHOB     .kg/m3              : 2     Density
 DT       .us/m               : 3     Sonic
 GR       .API                : 4     Gamma Ray
 AI       .(m/s)*(kg/m3)      : 5     P-Impedance
 AI_rel   .(m/s)*(kg/m3)      : 6     P-Impedance_rel
 PHIE     .fraction           : 7     Porosity
~A (ASCII LOG DATA)
# ...
    1493.8501          1944.3022           537.5137            38.3337       3617216.0000       -168507.6875          -999.2500
    1494.0000          1902.0697           537.5980            35.3658       3538092.5000       -168507.6875          -999.2500
    1494.1500          1837.2095           537.6772            35.2086       3416940.0000       -168507.6875          -999.2500
    1494.3000          1777.7035           537.7290            34.7159       3305946.7500       -168507.6875          -999.2500
    1494.4501          1751.7305           537.7524            32.1609       3257504.0000       -168507.6875          -999.2500
    1494.6001          1745.1836           537.7697            27.7300       3245225.0000       -168507.6875          -999.2500
    1494.7500          1754.1793           537.7204            25.0546       3262251.7500       -168507.6875          -999.2500
    1494.9000          1747.5642           537.6589            21.2718       3250320.7500       -168507.6875          -999.2500
    1495.0500          1718.4084           537.5876            20.6874       3196517.7500       -168507.6875          -999.2500
    1495.2001          1666.6686           537.5585            19.8470       3100441.7500       -168507.6875          -999.2500
    1495.3501          1678.1464           537.5208            19.7453       3122012.0000       -168507.6875          -999.2500
    1495.5000          1725.3296           537.4802            19.7489       3210034.0000       -168507.6875          -999.2500
    1495.6500          1778.1589           537.5361            19.8625       3307981.0000       -168507.6875          -999.2500
    1495.8000          1768.1000           537.6043            20.4429       3288850.0000       -168507.6875          -999.2500
    1495.9501          1709.9000           537.6696            20.7621       3180205.7500       -168507.6875          -999.2500
    1496.1001          1696.7731           537.7713            20.9185       3155194.7500       -198567.5781          -999.2500
    1496.2500          1736.8448           537.8672            20.9206       3229132.7500       -237808.0625          -999.2500
    1496.4000          1775.0098           537.9980            20.9206       3299285.7500       -239115.9375          -999.2500
    1496.5500          1776.8000           537.8934            22.4501       3303257.0000       -239115.9375          -999.2500
    1496.7001          1764.4684           537.7119            23.1911       3281437.7500       -239115.9375          -999.2500
    1496.8501          1749.6100           537.4998            23.2458       3255089.0000       -239115.9375          -999.2500
    1497.0000          1758.6740           537.4208            23.2458       3272433.7500       -239115.9375          -999.2500
    1497.1500          1769.6912           537.2985            22.6472       3293684.0000       -239115.9375          -999.2500
    1497.3000          1814.3745           537.2880            20.7545       3376912.5000       -239115.9375          -999.2500
    1497.4501          1881.8973           537.3083            20.4446       3502452.5000       -239115.9375          -999.2500
    1497.6001          1961.8171           537.3278            20.4446       3651061.5000       -239115.9375          -999.2500
    1497.7500          1972.4685           537.3551            21.2513       3670698.5000       -239115.9375          -999.2500
    1497.9000          1942.5642           536.9423            22.2843       3617816.0000       -239115.9375          -999.2500
    1498.0500          1905.6730           536.3642            23.2111       3552932.7500       -239115.9375          -999.2500
    1498.2001          1869.4371           532.3908            23.4180       3511340.0000       -239115.9375          -999.2500
    1498.3501          1860.3265           514.0244            23.4180       3620469.7500       -239115.9375          -999.2500
    1498.5000          1817.8043           522.1594            21.6529       3483096.0000       -239115.9375          -999.2500
    1498.6500          1807.6801           534.5205            20.9907       3382057.2500       -239115.9375          -999.2500
    1498.8000          1834.6796           537.4792            20.9907       3413485.2500       -239115.9375          -999.2500
    1498.9501          1864.3063           537.3594            22.1502       3469389.2500       -239115.9375          -999.2500
    1499.1001          1811.7836           535.3020            24.9948       3384413.0000       -239115.9375          -999.2500
    1499.2500          1787.5444           532.1727            27.6273       3359011.0000       -239115.9375          -999.2500
    1499.4000          1814.1691           534.8610            28.5281       3391772.0000       -239115.9375          -999.2500
    1499.5500          1861.6497           537.1902            28.5813       3465524.0000       -239115.9375          -999.2500
    1499.7001          1880.3978           537.2630            28.5813       3499957.7500       -239115.9375          -999.2500
    1499.8501          1856.3350           537.3831            27.9759       3454404.0000       -212640.7031          -999.2500
