~VERSION INFORMATION
 VERS.                          2.0   : CWLS LOG ASCII STANDARD - VERSION 2.0
 WRAP.                          NO    : ONE LINE PER DEPTH STEP
#
~Well Information Section
#MNEM     .UNIT     DATA                DESCRIPTION
#-----    -----     --------            --------------
 STRT     .M        48.0000             : START DEPTH
 STOP     .M        1500.0000           : END DEPTH
 STEP     .M        0.1500              : INCREMENT DEPTH
 NULL     .         -999.2500           : NULL VALUE
 COMP     .                              :
 WELL     .         F02-1               : WELL NAME
 EKB      .M        30.0000             : KELLY BUSHING ELEVATION
 EGL      .M        0.0000              : GROUND LEVEL ELEVATION
 EPD      .M        0.0000              : PERMANENT DATUM ELEVATION
 FLD      .                              :
 LOC      . X = 606554.0000 Y = 6080126.0000: WELL LOCATION
 PROV     .                              :
 SRVC     .                              :
 PROV     .                              :
 DATE     .                              :
 API      .                              :
#
~Curve Information Section
#MNEM     .UNIT               Curve #DESCRIPTION
#-----    -----               ----   --------------
 DEPTH    .M                  : 1     DEPTH
 RHOB     .kg/m3              : 2     Density
 DT       .us/m               : 3     Sonic
 GR       .API                : 4     Gamma Ray
 AI       .(m/s)*(kg/m3)      : 5     P-Impedance
 AI_rel   .(m/s)*(kg/m3)      : 6     P-Impedance_rel
 PHIE     .fraction           : 7     Porosity
~A (ASCII LOG DATA)
# ...
     142.5000          -999.2500           519.3980            16.8098       3854462.2500        -18865.7676          -999.2500
     142.6500          -999.2500           519.3906            17.1549       3854517.7500        -18865.7676          -999.2500
     142.8000          -999.2500           519.3832            16.5355       3854572.5000        -18865.7676          -999.2500
     142.9500          -999.2500           519.3757            16.2109       3854627.7500        -18865.7676          -999.2500
     143.1000          -999.2500           519.3683            16.5570       3854682.7500        -18865.7676          -999.2500
     143.2500          -999.2500           519.3612            16.9267       3854735.7500        -18865.7676          -999.2500
     143.4000          -999.2500           519.3536            16.5520       3854791.7500        -18865.7676          -999.2500
     143.5500          -999.2500           519.3463            15.5755       3854846.7500        -18865.7676          -999.2500
     143.7000          -999.2500           519.3389            16.0500       3854901.5000        -18865.7676          -999.2500
     143.8500          -999.2500           519.3314            15.0956       3854956.7500        -18865.7676          -999.2500
     144.0000          -999.2500           519.3240            15.0480       3855011.7500        -18865.7676          -999.2500
     144.1500          -999.2500           519.3166            15.9853       3855066.7500        -18865.7676          -999.2500
     144.3000          -999.2500           519.3091            16.2912       3855122.2500        -18865.7676          -999.2500
     144.4500          -999.2500           519.3020            16.3143       3855175.0000        -18865.7676          -999.2500
     144.6000          -999.2500           519.2946            16.3143       3855230.0000        -18865.7676          -999.2500
     144.7500          -999.2500           519.2872            15.7666       3855285.0000        -18865.7676          -999.2500
     144.9000          -999.2500           519.2797            15.2335       3855340.5000        -18865.7676          -999.2500
     145.0500          -999.2500           519.2723            15.0209       3855395.5000        -18865.7676          -999.2500
     145.2000          -999.2500           519.2650            14.4074       3855450.2500        -19156.7891          -999.2500
     145.3500          -999.2500           519.2574            14.2669       3855506.0000        -19707.3984          -999.2500
     145.5000          -999.2500           519.2503            14.2601       3855559.0000        -19832.6914          -999.2500
     145.6500          -999.2500           519.2429            14.2581       3855614.0000        -19832.6914          -999.2500
     145.8000          -999.2500           519.2355            14.2169       3855668.7500        -19832.6914          -999.2500
     145.9500          -999.2500           519.2281            14.1690       3855723.5000        -19832.6914          -999.2500
     146.1000          -999.2500           519.2206            13.6145       3855778.7500        -19832.6914          -999.2500
     146.2500          -999.2500           519.2133            13.2230       3855834.0000        -19832.6914          -999.2500
     146.4000          -999.2500           519.2061            13.1462       3855887.7500        -19832.6914          -999.2500
     146.5500          -999.2500           519.1987            13.1462       3855942.0000        -19832.6914          -999.2500
     146.7000          -999.2500           519.1913            13.4441       3855997.0000        -19832.6914          -999.2500
     146.8500          -999.2500           519.1838            14.5336       3856052.2500        -19832.6914          -999.2500
     147.0000          -999.2500           519.1765            15.1041       3856107.2500        -19832.6914          -999.2500
     147.1500          -999.2500           519.1690            15.9685       3856162.5000        -19832.6914          -999.2500
     147.3000          -999.2500           519.1616            16.5305       3856217.7500        -19832.6914          -999.2500
     147.4500          -999.2500           519.1542            16.5305       3856273.0000        -19832.6914          -999.2500
     147.6000          -999.2500           519.1469            16.4557       3856326.7500        -19832.6914          -999.2500
     147.7500          -999.2500           519.1396            16.3425       3856380.5000        -19832.6914          -999.2500
     147.9000          -999.2500           519.1322            16.2260       3856436.0000        -19832.6914          -999.2500
     148.0500          -999.2500           519.1248            16.1612       3856491.5000        -19832.6914          -999.2500
     148.2000          -999.2500           519.1174            16.1612       3856546.2500        -19832.6914          -999.2500
     148.3500          -999.2500           519.1099            16.4527       3856601.2500        -19832.6914          -999.2500
     148.5000          -999.2500           519.1025            17.0567       3856656.2500        -19832.6914          -999.2500
     148.6500          -999.2500           519.0953            17.4213       3856710.5000        -19832.6914          -999.2500
     148.8000          -999.2500           519.0880            17.4560       3856764.5000        -19832.6914          -999.2500
     148.9500          -999.2500           519.0806            17.4308       3856819.2500        -19832.6914          -999.2500
     149.1000          -999.2500           519.0731            17.3379       3856875.0000        -19226.4883          -999.2500
     149.2500          -999.2500           519.0657            16.7479       3856930.0000        -17863.4277          -999.2500
     149.4000          -999.2500           519.0583            15.6010       3856985.5000        -17144.8281          -999.2500
     149.5500          -999.2500           519.0508            14.5805       3857040.7500        -17144.8281          -999.2500
     149.7000          -999.2500           519.0435            13.6680       3857094.7500        -17144.8281          -999.2500
     149.8500          -999.2500           519.0363            13.6680       3857148.2500        -17144.8281          -999.2500
     150.0000          -999.2500           519.0289            13.8535       3857203.2500        -17144.8281          -999.2500
     150.1500          -999.2500           519.0215            14.4970       3857258.7500        -17144.8281          -999.2500
     150.3000          -999.2500           519.0140            15.2474       3857313.7500        -17144.8281          -999.2500
     150.4500          -999.2500           519.0067            16.0377       3857368.7500        -17144.8281          -999.2500
     150.6000          -999.2500           518.9992            16.3963       3857424.2500        -17144.8281          -999.2500
     150.7500          -999.2500           518.9919            16.3963       3857478.7500        -17144.8281          -999.2500
     150.9000          -999.2500           518.9847            16.4032       3857532.0000        -17144.8281          -999.2500
     151.0500          -999.2500           518.9773            16.3627       3857587.0000        -17144.8281          -999.2500
     151.2000          -999.2500           518.9698            16.0667       3857642.2500        -17144.8281          -999.2500
     151.3500          -999.2500           518.9624            16.1225       3857697.7500        -17144.8281          -999.2500
     151.5000          -999.2500           518.9550            16.4849       3857752.5000        -17144.8281          -999.2500
     151.6500          -999.2500           518.9476            16.8378       3857808.2500        -17144.8281          -999.2500
     151.8000          -999.2500           518.9401            16.8378       3857863.5000        -17144.8281          -999.2500
