~VERSION INFORMATION
 VERS.                          2.0   : CWLS LOG ASCII STANDARD - VERSION 2.0
 WRAP.                          NO    : ONE LINE PER DEPTH STEP
#
~Well Information Section
#MNEM     .UNIT     DATA                DESCRIPTION
#-----    -----     --------            --------------
 STRT     .M        48.0000             : START DEPTH
 STOP     .M        1500.0000           : END DEPTH
 STEP     .M        0.1500              : INCREMENT DEPTH
 NULL     .         -999.2500           : NULL VALUE
 COMP     .                              :
 WELL     .         F02-1               : WELL NAME
 EKB      .M        30.0000             : KELLY BUSHING ELEVATION
 EGL      .M        0.0000              : GROUND LEVEL ELEVATION
 EPD      .M        0.0000              : PERMANENT DATUM ELEVATION
 FLD      .                              :
 LOC      . X = 606554.0000 Y = 6080126.0000: WELL LOCATION
 PROV     .                              :
 SRVC     .                              :
 PROV     .                              :
 DATE     .                              :
 API      .                              :
#
~Curve Information Section
#MNEM     .UNIT               Curve #DESCRIPTION
#-----    -----               ----   --------------
 DEPTH    .M                  : 1     DEPTH
 RHOB     .kg/m3              : 2     Density
 DT       .us/m               : 3     Sonic
 GR       .API                : 4     Gamma Ray
 AI       .(m/s)*(kg/m3)      : 5     P-Impedance
 AI_rel   .(m/s)*(kg/m3)      : 6     P-Impedance_rel
 PHIE     .fraction           : 7     Porosity
~A (ASCII LOG DATA)
# ...
    1106.4000          2145.4722           433.0051            47.4964       4955077.5000        141797.9688             0.3153
    1106.5500          2147.2727           427.7696            45.9128       5019847.5000        141797.9688             0.3142
    1106.7001          2138.0457           427.0992            45.3076       5005971.0000        141797.9688             0.3200
    1106.8501          2124.9956           429.0002            44.2116       4953405.5000        141797.9688             0.3281
    1107.0000          2110.3918           430.7587            42.0103       4899273.0000        111560.9219             0.3372
    1107.1500          2123.7664           432.4854            39.5346       4910593.5000        -96345.3203             0.3289
    1107.3000          2126.7603           440.7330            38.6674       4825909.0000       -142576.4062             0.3270
    1107.4501          2133.1306           442.6184            37.7611       4819345.0000       -142576.4062             0.3230
    1107.6001          2130.4497           441.9521            36.5088       4820543.5000       -142576.4062             0.3247
    1107.7500          2122.4641           440.6562            36.1180       4816597.0000       -142576.4062             0.3297
    1107.9000          2136.0618           434.8630            35.4494       4912475.0000       -142576.4062             0.3212
    1108.0500          2137.6956           433.5901            35.2152       4930233.5000       -142576.4062             0.3202
    1108.2001          2137.4434           435.6973            35.2152       4905830.0000       -142576.4062             0.3204
    1108.3501          2145.4944           438.9166            33.9322       4888186.0000       -142576.4062             0.3153
    1108.5000          2142.4348           442.9874            32.7548       4836485.5000       -142576.4062             0.3172
    1108.6500          2118.3921           444.1920            32.4667       4769078.0000       -142576.4062             0.3323
    1108.8000          2112.2307           443.7356            32.4667       4760117.5000       -142576.4062             0.3361
    1108.9501          2128.6133           443.4269            32.7989       4800375.0000       -142576.4062             0.3259
    1109.1001          2134.7576           443.3265            32.9972       4815316.5000       -142576.4062             0.3220
    1109.2500          2130.8879           443.2725            33.0442       4807174.5000       -142576.4062             0.3245
    1109.4000          2130.0752           442.9623            33.0890       4808708.0000       -142576.4062             0.3250
    1109.5500          2137.5276           442.5264            33.2999       4830289.5000       -142576.4062             0.3203
    1109.7001          2137.2773           441.4356            34.1910       4841648.0000       -142576.4062             0.3204
    1109.8501          2129.1672           439.3985            35.3577       4845656.5000       -142576.4062             0.3255
    1110.0000          2119.1145           436.4082            36.0365       4855827.5000       -142576.4062             0.3318
    1110.1500          2118.4678           431.9176            36.2046       4905088.5000       -142576.4062             0.3322
    1110.3000          2134.2454           426.0423            36.2046       5009925.0000       -142576.4062             0.3224
    1110.4501          2141.9043           422.6472            36.2046       5067829.5000       -142576.4062             0.3176
    1110.6001          2133.9458           422.9858            36.3657       5044979.0000       -142576.4062             0.3225
    1110.7500          2131.9258           426.1294            37.5889       5003175.0000       -142576.4062             0.3238
    1110.9000          2147.3816           431.1453            39.3666       4980613.5000       -142576.4062             0.3141
    1111.0500          2166.6433           433.2338            39.9876       5001103.0000       -142576.4062             0.3021
    1111.2001          2166.0671           431.8756            39.9876       5015474.0000       -142576.4062             0.3024
    1111.3501          2140.8252           431.0008            39.1997       4967236.5000       -185422.2969             0.3182
    1111.5000          2108.6367           433.8047            37.8406       4860999.5000       -272864.7188             0.3383
    1111.6500          2095.0669           438.6390            37.8406       4776525.5000       -297619.3750             0.3468
    1111.8000          2101.3384           445.4639            38.1031       4717333.0000       -297619.3750             0.3429
    1111.9501          2118.8374           450.5290            38.9058       4703000.0000       -297619.3750             0.3320
    1112.1001          2135.1221           449.6990            39.4629       4747967.5000       -297619.3750             0.3218
    1112.2500          2139.5532           447.0316            39.4629       4786109.5000       -297619.3750             0.3190
    1112.4000          2120.3115           443.0673            39.1199       4785731.5000       -297619.3750             0.3311
    1112.5500          2111.5481           436.4394            37.8871       4838162.0000       -297619.3750             0.3365
    1112.7001          2115.2800           434.1449            37.1829       4872310.5000       -297619.3750             0.3342
    1112.8501          2121.2490           433.1872            36.9984       4896843.5000       -297619.3750             0.3305
    1113.0000          2118.1880           435.5778            36.3829       4863372.0000       -297619.3750             0.3324
    1113.1500          2100.2869           444.0880            36.3829       4729781.5000       -297619.3750             0.3436
    1113.3000          2096.3274           453.2840            36.7149       4624938.5000       -297619.3750             0.3461
    1113.4501          2108.4185           461.7385            38.7697       4566280.0000       -297619.3750             0.3385
    1113.6001          2126.8459           464.8654            40.9369       4575571.0000       -297619.3750             0.3270
    1113.7500          2158.0542           454.3010            43.5032       4751386.0000       -297619.3750             0.3074
    1113.9000          2197.3118           437.4257            45.4142       5023808.5000       -297619.3750             0.2829
    1114.0500          2216.6711           424.6159            46.8589       5220633.5000       -297619.3750             0.2709
    1114.2001          2214.6868           414.8263            46.8589       5338901.5000       -297619.3750             0.2721
    1114.3501          2206.0664           408.1024            46.7647       5405697.0000       -297619.3750             0.2775
    1114.5000          2175.1401           400.2656            44.7847       5434242.5000       -297619.3750             0.2968
    1114.6500          2175.8989           400.9233            42.5024       5427251.0000       -297619.3750             0.2964
    1114.8000          2147.3000           406.8940            39.2525       5277296.0000       -297619.3750             0.3142
    1114.9501          2127.2000           410.2283            37.8750       5185405.0000       -297619.3750             0.3268
    1115.1001          2084.5625           424.3605            37.4461       4912364.5000       -297619.3750             0.3533
    1115.2500          2077.8086           445.6732            37.0855       4662573.0000       -297619.3750             0.3576
    1115.4000          2084.7520           460.0950            37.0292       4531312.0000       -297619.3750             0.3533
    1115.5500          2092.8462           458.3040            36.2587       4566517.5000       -297619.3750             0.3482
    1115.7001          2106.8357           452.3737            36.2038       4657388.0000       -309301.2188             0.3394
