~VERSION INFORMATION
 VERS.                          2.0   : CWLS LOG ASCII STANDARD - VERSION 2.0
 WRAP.                          NO    : ONE LINE PER DEPTH STEP
#
~Well Information Section
#MNEM     .UNIT     DATA                DESCRIPTION
#-----    -----     --------            --------------
 STRT     .M        48.0000             : START DEPTH
 STOP     .M        1500.0000           : END DEPTH
 STEP     .M        0.1500              : INCREMENT DEPTH
 NULL     .         -999.2500           : NULL VALUE
 COMP     .                              :
 WELL     .         F02-1               : WELL NAME
 EKB      .M        30.0000             : KELLY BUSHING ELEVATION
 EGL      .M        0.0000              : GROUND LEVEL ELEVATION
 EPD      .M        0.0000              : PERMANENT DATUM ELEVATION
 FLD      .                              :
 LOC      . X = 606554.0000 Y = 6080126.0000: WELL LOCATION
 PROV     .                              :
 SRVC     .                              :
 PROV     .                              :
 DATE     .                              :
 API      .                              :
#
~Curve Information Section
#MNEM     .UNIT               Curve #DESCRIPTION
#-----    -----               ----   --------------
 DEPTH    .M                  : 1     DEPTH
 RHOB     .kg/m3              : 2     Density
 DT       .us/m               : 3     Sonic
 GR       .API                : 4     Gamma Ray
 AI       .(m/s)*(kg/m3)      : 5     P-Impedance
 AI_rel   .(m/s)*(kg/m3)      : 6     P-Impedance_rel
 PHIE     .fraction           : 7     Porosity
~A (ASCII LOG DATA)
# ...
     718.9500          2104.1702           483.1253            81.8193       4355329.5000        123798.0547             0.3411
     719.1000          2095.6133           483.1253            82.1602       4337618.0000        123798.0547             0.3465
     719.2500          2090.8943           483.1253            82.1913       4327851.0000        118197.5312             0.3495
     719.4000          2096.1755           483.1253            82.1551       4338782.0000        112403.1406             0.3461
     719.5500          2105.2830           483.1253            81.9123       4357633.5000        111573.3281             0.3404
     719.7000          2114.8994           483.1253            81.7088       4377538.0000        111573.3281             0.3344
     719.8500          2126.8030           483.1253            81.7088       4402176.5000        111573.3281             0.3270
     720.0000          2131.7554           483.1253            83.1348       4412427.0000        111573.3281             0.3239
     720.1500          2127.6604           483.1253            84.9302       4403951.0000        111573.3281             0.3265
     720.3000          2125.0005           483.1253            85.0272       4398445.5000        111573.3281             0.3281
     720.4500          2117.8987           483.1253            85.2069       4383745.5000        111573.3281             0.3326
     720.6000          2116.8784           483.1253            85.4687       4381634.0000        111573.3281             0.3332
     720.7500          2120.1394           483.1253            85.4687       4388384.0000        111573.3281             0.3312
     720.9000          2121.2522           483.1253            85.3960       4390687.0000        111573.3281             0.3305
     721.0500          2119.0005           483.1253            85.2669       4386026.0000        111573.3281             0.3319
     721.2000          2100.8079           483.1253            85.2669       4348370.0000        111573.3281             0.3432
     721.3500          2082.5615           483.1253            85.2520       4310603.0000        111573.3281             0.3547
     721.5000          2080.8506           483.1253            85.2300       4307061.5000        111573.3281             0.3557
     721.6500          2100.3010           483.1253            85.2087       4347321.0000        111573.3281             0.3436
     721.8000          2104.5007           483.1253            85.0887       4356014.0000        111573.3281             0.3409
     721.9500          2088.4036           483.1253            84.8525       4322695.0000        111573.3281             0.3510
     722.1000          2101.5557           483.1253            83.9581       4349918.0000        111573.3281             0.3428
     722.2500          2110.0669           483.1253            83.3783       4367535.0000        111573.3281             0.3374
     722.4000          2103.5361           483.1253            83.3324       4354017.5000        111573.3281             0.3415
     722.5500          2085.5808           483.1253            83.3324       4316852.0000        111573.3281             0.3527
     722.7000          2090.3210           483.1253            83.3324       4326664.0000        111573.3281             0.3498
     722.8500          2104.2036           483.1253            83.5492       4355398.5000        111573.3281             0.3411
     723.0000          2085.2151           483.1253            84.7460       4316095.5000        111573.3281             0.3530
     723.1500          2096.8604           483.1253            84.7460       4340199.0000        110950.4688             0.3458
     723.3000          2114.5364           483.1253            84.6567       4376786.0000        102735.4141             0.3346
     723.4500          2113.3726           483.1253            83.9118       4374377.5000         72288.2656             0.3354
     723.6000          2131.5095           483.1253            83.8852       4411918.5000         72288.2656             0.3241
     723.7500          2112.2358           483.1253            83.5241       4372024.5000         72288.2656             0.3361
     723.9000          2124.7119           483.1253            83.0568       4397848.5000         72288.2656             0.3283
     724.0500          2110.8799           483.1253            83.2914       4369218.0000         72288.2656             0.3370
     724.2000          2117.3999           483.1253            83.5510       4382713.5000         72288.2656             0.3329
     724.3500          2117.3999           483.1253            83.5510       4382713.5000         72288.2656             0.3329
     724.5000          2121.9700           483.1253            84.9471       4392173.0000         72288.2656             0.3300
     724.6500          2109.0571           483.1253            86.3018       4365444.5000         72288.2656             0.3381
     724.8000          2109.3723           483.1253            86.3389       4366097.0000         72288.2656             0.3379
     724.9500          2118.2080           483.1253            86.3389       4384385.5000         72288.2656             0.3324
     725.1000          2130.2849           483.1253            86.4784       4409383.0000         72288.2656             0.3248
     725.2500          2130.5603           483.1253            85.7041       4409953.5000         72288.2656             0.3247
     725.4000          2133.9841           483.1253            85.6299       4417040.5000         72288.2656             0.3226
     725.5500          2119.2642           483.1253            86.2730       4386572.5000         72288.2656             0.3317
     725.7000          2108.8774           483.1253            86.3607       4365073.0000         72288.2656             0.3382
     725.8500          2100.9963           483.1253            85.6854       4348760.0000         72288.2656             0.3431
     726.0000          2103.4675           483.1253            85.3425       4353875.5000         72288.2656             0.3416
     726.1500          2097.2058           483.1253            84.9138       4340914.5000         72288.2656             0.3455
     726.3000          2099.2810           483.1253            84.8255       4345210.0000         72288.2656             0.3442
     726.4500          2090.7544           483.1253            85.0686       4327561.0000         72288.2656             0.3495
     726.6000          2098.0161           483.1253            85.1344       4342592.0000         72288.2656             0.3450
     726.7500          2103.8628           483.1253            84.5055       4354693.5000         72288.2656             0.3414
     726.9000          2101.9392           483.1253            83.2261       4350712.0000         72288.2656             0.3426
     727.0500          2113.2856           483.1253            79.9792       4374197.0000         72288.2656             0.3354
     727.2000          2115.4841           483.1253            78.3666       4378747.5000         72288.2656             0.3341
     727.3500          2115.9795           483.1253            77.5748       4379773.0000         50243.2656             0.3338
     727.5000          2110.0315           483.1253            77.3086       4367461.5000          9392.3564             0.3375
     727.6500          2110.5242           483.1253            77.3086       4368481.5000         -5530.5811             0.3371
     727.8000          2109.4265           483.1253            78.6307       4366209.5000         -5530.5811             0.3378
     727.9500          2120.4238           483.1253            79.7197       4388972.5000         -5530.5811             0.3309
     728.1000          2124.0544           483.1253            79.9260       4396487.5000         -5530.5811             0.3287
     728.2500          2128.5615           483.1253            79.9260       4405816.0000         -5530.5811             0.3259
