~VERSION INFORMATION
 VERS.                          2.0   : CWLS LOG ASCII STANDARD - VERSION 2.0
 WRAP.                          NO    : ONE LINE PER DEPTH STEP
#
~Well Information Section
#MNEM     .UNIT     DATA                DESCRIPTION
#-----    -----     --------            --------------
 STRT     .M        48.0000             : START DEPTH
 STOP     .M        1500.0000           : END DEPTH
 STEP     .M        0.1500              : INCREMENT DEPTH
 NULL     .         -999.2500           : NULL VALUE
 COMP     .                              :
 WELL     .         F02-1               : WELL NAME
 EKB      .M        30.0000             : KELLY BUSHING ELEVATION
 EGL      .M        0.0000              : GROUND LEVEL ELEVATION
 EPD      .M        0.0000              : PERMANENT DATUM ELEVATION
 FLD      .                              :
 LOC      . X = 606554.0000 Y = 6080126.0000: WELL LOCATION
 PROV     .                              :
 SRVC     .                              :
 PROV     .                              :
 DATE     .                              :
 API      .                              :
#
~Curve Information Section
#MNEM     .UNIT               Curve #DESCRIPTION
#-----    -----               ----   --------------
 DEPTH    .M                  : 1     DEPTH
 RHOB     .kg/m3              : 2     Density
 DT       .us/m               : 3     Sonic
 GR       .API                : 4     Gamma Ray
 AI       .(m/s)*(kg/m3)      : 5     P-Impedance
 AI_rel   .(m/s)*(kg/m3)      : 6     P-Impedance_rel
 PHIE     .fraction           : 7     Porosity
~A (ASCII LOG DATA)
# ...
     435.4500          1503.5129           514.3900            17.2742       2922933.0000       -265099.1875          -999.2500
     435.6000          1512.2112           511.7659            19.3779       2954938.0000       -265099.1875          -999.2500
     435.7500          1538.0891           510.2781            20.8487       3014217.2500       -265099.1875          -999.2500
     435.9000          1566.7047           511.1431            21.1565       3065111.7500       -265099.1875          -999.2500
     436.0500          1565.7991           513.3936            21.1565       3049901.7500       -265099.1875          -999.2500
     436.2000          1549.5927           513.4614            21.0183       3017931.7500       -265099.1875          -999.2500
     436.3500          1529.7328           514.1472            20.5043       2975346.0000       -265099.1875          -999.2500
     436.5000          1509.0750           518.0389            20.2008       2913242.7500       -265099.1875          -999.2500
     436.6500          1476.3752           524.0740            20.2008       2817299.0000       -265099.1875          -999.2500
     436.8000          1458.8899           530.5885            20.3030       2749576.5000       -265099.1875          -999.2500
     436.9500          1464.2677           532.8954            20.7503       2747774.7500       -265099.1875          -999.2500
     437.1000          1466.4551           530.4225            20.7629       2764676.7500       -265099.1875          -999.2500
     437.2500          1443.3219           527.0029            20.7629       2738668.7500       -265099.1875          -999.2500
     437.4000          1403.1545           517.7530            20.6476       2710067.5000       -265099.1875          -999.2500
     437.5500          1381.5676           513.2360            19.7626       2691863.0000       -265099.1875          -999.2500
     437.7000          1363.2120           510.9473            19.3563       2668008.7500       -265099.1875          -999.2500
     437.8500          1366.3751           512.2437            18.6326       2667459.2500       -265099.1875          -999.2500
     438.0000          1364.5271           517.9649            17.3414       2634407.2500       -265099.1875          -999.2500
     438.1500          1359.9244           520.6209            16.9804       2612120.7500       -265099.1875          -999.2500
     438.3000          1365.3081           520.2250            16.9906       2624457.5000       -265099.1875          -999.2500
     438.4500          1365.6302           518.8497            17.3648       2632034.5000       -265099.1875          -999.2500
     438.6000          1370.1000           518.1572            17.8137       2644178.5000       -265099.1875          -999.2500
     438.7500          1367.6167           519.1931            18.6942       2634119.7500       -272843.0312          -999.2500
     438.9000          1367.9894           521.6388            20.0528       2622485.7500       -468296.8125          -999.2500
     439.0500          1367.0399           523.6628            20.2448       2610536.2500       -473605.5312          -999.2500
     439.2000          1361.7932           528.7009            20.5529       2575752.7500       -473605.5312          -999.2500
     439.3500          1362.9829           528.4431            20.2745       2579243.0000       -473605.5312          -999.2500
     439.5000          1366.7534           527.1828            20.2512       2592563.2500       -473605.5312          -999.2500
     439.6500          1370.4956           530.0482            19.7752       2585611.0000       -473605.5312          -999.2500
     439.8000          1370.4598           529.4023            17.1837       2588693.5000       -473605.5312          -999.2500
     439.9500          1372.7402           528.1084            16.4994       2599356.7500       -473605.5312          -999.2500
     440.1000          1368.8661           530.1956            16.3286       2581828.5000       -473605.5312          -999.2500
     440.2500          1366.5165           531.8822            16.4239       2569213.5000       -473605.5312          -999.2500
     440.4000          1367.9895           533.3629            15.9748       2564839.5000       -473605.5312          -999.2500
     440.5500          1365.7593           534.9656            15.8574       2552992.2500       -473605.5312          -999.2500
     440.7000          1361.3234           532.0362            15.3067       2558718.7500       -473605.5312          -999.2500
     440.8500          1356.9259           526.0077            13.9406       2579725.0000       -473605.5312          -999.2500
     441.0000          1356.1260           521.2801            13.5704       2601562.7500       -473605.5312          -999.2500
     441.1500          1357.2268           518.1287            13.5704       2619497.2500       -473605.5312          -999.2500
     441.3000          1360.0488           519.8415            12.5939       2616290.5000       -473605.5312          -999.2500
     441.4500          1358.9503           521.6799            12.2146       2604956.0000       -473605.5312          -999.2500
     441.6000          1354.3234           523.4246            12.2146       2587445.0000       -473605.5312          -999.2500
     441.7500          1350.4447           523.6125            12.2146       2579091.0000       -473605.5312          -999.2500
     441.9000          1350.5763           520.0811            12.2146       2596920.5000       -473605.5312          -999.2500
     442.0500          1354.2084           519.2480            12.8414       2608017.5000       -473605.5312          -999.2500
     442.2000          1357.7805           522.0574            15.2105       2600846.5000       -473605.5312          -999.2500
     442.3500          1360.0527           524.6396            17.8167       2592362.2500       -473605.5312          -999.2500
     442.5000          1362.7582           526.0377            20.9235       2590608.7500       -473605.5312          -999.2500
     442.6500          1382.6830           527.0197            26.4868       2623563.2500       -448960.5000          -999.2500
     442.8000          1418.1768           530.3868            31.9487       2673740.2500       -345419.5000          -999.2500
     442.9500          1474.2886           535.8455            36.3883       2751055.0000       -278496.6250          -999.2500
     443.1000          1512.6523           536.0393            38.6599       2822002.0000       -278496.6250          -999.2500
     443.2500          1533.1460           531.2465            38.9920       2886141.2500       -278496.6250          -999.2500
     443.4000          1565.3187           529.6400            40.8514       2955390.2500       -278496.6250          -999.2500
     443.5500          1627.4869           535.4749            42.5952       3038796.0000       -278496.6250          -999.2500
     443.7000          1693.6694           543.1236            42.5952       3118284.2500       -278496.6250          -999.2500
     443.8500          1708.7449           548.6688            39.9732       3114529.5000       -278496.6250          -999.2500
     444.0000          1672.9971           557.3986            34.3883       3002371.5000       -278496.6250          -999.2500
     444.1500          1601.3826           563.9175            30.3599       2839717.5000       -278496.6250          -999.2500
     444.3000          1514.2009           561.3520            28.4541       2697074.7500       -278496.6250          -999.2500
     444.4500          1442.9545           556.1851            27.6649       2594284.5000       -278496.6250          -999.2500
     444.6000          1410.1909           549.3099            27.6649       2567245.7500       -278496.6250          -999.2500
     444.7500          1394.0575           542.4718            28.1518       2569828.0000       -278496.6250          -999.2500
