~VERSION INFORMATION
 VERS.                          2.0   : CWLS LOG ASCII STANDARD - VERSION 2.0
 WRAP.                          NO    : ONE LINE PER DEPTH STEP
#
~Well Information Section
#MNEM     .UNIT     DATA                DESCRIPTION
#-----    -----     --------            --------------
 STRT     .M        48.0000             : START DEPTH
 STOP     .M        1500.0000           : END DEPTH
 STEP     .M        0.1500              : INCREMENT DEPTH
 NULL     .         -999.2500           : NULL VALUE
 COMP     .                              :
 WELL     .         F02-1               : WELL NAME
 EKB      .M        30.0000             : KELLY BUSHING ELEVATION
 EGL      .M        0.0000              : GROUND LEVEL ELEVATION
 EPD      .M        0.0000              : PERMANENT DATUM ELEVATION
 FLD      .                              :
 LOC      . X = 606554.0000 Y = 6080126.0000: WELL LOCATION
 PROV     .                              :
 SRVC     .                              :
 PROV     .                              :
 DATE     .                              :
 API      .                              :
#
~Curve Information Section
#MNEM     .UNIT               Curve #DESCRIPTION
#-----    -----               ----   --------------
 DEPTH    .M                  : 1     DEPTH
 RHOB     .kg/m3              : 2     Density
 DT       .us/m               : 3     Sonic
 GR       .API                : 4     Gamma Ray
 AI       .(m/s)*(kg/m3)      : 5     P-Impedance
 AI_rel   .(m/s)*(kg/m3)      : 6     P-Impedance_rel
 PHIE     .fraction           : 7     Porosity
~A (ASCII LOG DATA)
# ...
     822.9000          2215.4148           433.0056            40.4526       5116542.0000        209703.8125             0.2716
     823.0500          2221.7834           428.8656            40.4526       5180726.0000        209703.8125             0.2677
     823.2000          2214.8323           427.4359            41.0621       5181675.5000        209703.8125             0.2720
     823.3500          2228.2173           428.9685            41.7083       5194313.0000        209703.8125             0.2636
     823.5001          2232.4146           431.0558            42.2433       5179001.0000        209703.8125             0.2610
     823.6500          2223.8005           433.7350            43.6276       5127196.0000        209703.8125             0.2664
     823.8000          2228.4629           435.6883            44.8124       5114800.0000        209703.8125             0.2634
     823.9500          2238.2839           434.9585            45.0748       5146021.0000        209703.8125             0.2573
     824.1000          2243.0806           432.0815            44.7604       5191442.0000        209703.8125             0.2543
     824.2501          2224.4092           429.6194            43.8338       5177566.0000        209703.8125             0.2660
     824.4000          2208.4114           429.0012            42.7321       5147797.0000        209703.8125             0.2760
     824.5500          2209.6758           429.5808            41.9870       5143807.5000        209703.8125             0.2752
     824.7000          2211.5747           431.0379            41.3565       5130817.5000        147605.0312             0.2740
     824.8500          2219.2610           433.2671            40.8069       5122176.0000         63990.5312             0.2692
     825.0001          2221.3484           434.6147            40.3248       5111074.0000         48271.4219             0.2679
     825.1500          2222.9351           434.9888            39.9004       5110321.0000         48271.4219             0.2669
     825.3000          2234.2043           436.0384            40.2004       5123861.0000         48271.4219             0.2598
     825.4500          2246.2051           436.7728            40.7943       5142726.0000         48271.4219             0.2524
     825.6000          2255.6292           437.0945            41.4812       5160509.0000         48271.4219             0.2465
     825.7501          2259.1140           436.6621            42.9249       5173596.0000         48271.4219             0.2443
     825.9000          2261.6077           435.4373            44.2847       5193942.0000         48271.4219             0.2428
     826.0500          2271.8948           434.1230            44.7605       5233296.5000         48271.4219             0.2363
     826.2000          2262.4275           433.7377            45.3000       5216108.0000         48271.4219             0.2423
     826.3500          2249.3467           432.6004            45.8543       5199592.0000         48271.4219             0.2504
     826.5001          2243.6772           431.8113            45.9736       5195968.5000         48271.4219             0.2540
     826.6500          2246.1660           432.6181            46.3310       5192030.0000         48271.4219             0.2524
     826.8000          2247.1370           432.6300            47.3830       5194129.0000         48271.4219             0.2518
     826.9500          2256.9160           432.8092            47.3830       5214574.5000         48271.4219             0.2457
     827.1000          2257.1528           432.6918            46.7994       5216532.5000         48271.4219             0.2455
     827.2501          2248.9492           432.2497            44.1551       5202892.5000         48271.4219             0.2506
     827.4000          2255.3479           432.6141            42.4495       5213304.0000         48271.4219             0.2466
     827.5500          2253.0483           433.4005            42.4495       5198552.5000         48271.4219             0.2481
     827.7000          2240.7427           434.2629            42.6350       5159873.0000         48271.4219             0.2558
     827.8500          2234.1370           433.7010            43.8395       5151330.5000         48271.4219             0.2599
     828.0001          2249.3738           433.7169            44.9521       5186275.0000         48271.4219             0.2504
     828.1500          2237.5374           434.3087            46.8047       5151965.5000         48271.4219             0.2578
     828.3000          2237.2668           436.8734            47.0591       5121124.0000         48271.4219             0.2580
     828.4500          2228.9587           440.6805            48.0868       5058094.0000         48271.4219             0.2631
     828.6000          2214.7556           446.9836            49.8338       4954900.0000         48271.4219             0.2720
     828.7501          2222.2600           450.2732            49.8338       4935359.0000         44927.8672             0.2673
     828.9000          2229.9595           451.6406            49.8338       4937465.0000        -50840.1719             0.2625
     829.0500          2248.9980           451.5308            49.8338       4980829.5000        -57749.8867             0.2506
     829.2000          2244.2998           450.8078            49.8338       4978396.5000        -57749.8867             0.2536
     829.3500          2234.4341           449.7668            49.8175       4967983.5000        -57749.8867             0.2597
     829.5001          2242.3264           448.3373            49.8173       5001431.0000        -57749.8867             0.2548
     829.6500          2238.1179           446.9149            49.8173       5007929.5000        -57749.8867             0.2575
     829.8000          2217.2656           450.4824            48.6051       4922030.5000        -57749.8867             0.2705
     829.9500          2203.6531           453.9649            47.6155       4854274.5000        -57749.8867             0.2789
     830.1000          2192.2620           463.7638            45.9966       4727365.5000        -57749.8867             0.2860
     830.2501          2218.4277           463.1848            45.1060       4789541.5000        -57749.8867             0.2698
     830.4000          2221.3755           457.3450            44.8300       4857214.5000        -57749.8867             0.2679
     830.5500          2209.1797           443.7235            44.5713       4979293.0000        -57749.8867             0.2755
     830.7000          2216.2610           434.9878            44.7602       5095271.0000        -57749.8867             0.2711
     830.8500          2224.5308           434.2447            44.9764       5122756.5000        -57749.8867             0.2659
     831.0001          2218.0747           435.3141            44.8440       5095358.5000        -57749.8867             0.2699
     831.1500          2229.3748           437.0092            45.1890       5101425.5000        -57749.8867             0.2628
     831.3000          2228.6238           437.0495            45.9566       5099247.0000        -57749.8867             0.2633
     831.4500          2228.6165           436.2611            46.1522       5108451.5000        -57749.8867             0.2633
     831.6000          2224.2944           435.2086            45.8771       5110869.5000        -57749.8867             0.2661
     831.7501          2215.7207           435.3081            46.0517       5090012.0000        -57749.8867             0.2715
     831.9000          2213.4565           437.1165            46.1522       5063796.0000        -57749.8867             0.2729
     832.0500          2196.4666           439.3945            46.2085       4998941.5000        -57749.8867             0.2835
     832.2000          2193.8647           441.1498            46.0140       4973061.5000        -57749.8867             0.2851
