~VERSION INFORMATION
 VERS.                          2.0   : CWLS LOG ASCII STANDARD - VERSION 2.0
 WRAP.                          NO    : ONE LINE PER DEPTH STEP
#
~Well Information Section
#MNEM     .UNIT     DATA                DESCRIPTION
#-----    -----     --------            --------------
 STRT     .M        48.0000             : START DEPTH
 STOP     .M        1500.0000           : END DEPTH
 STEP     .M        0.1500              : INCREMENT DEPTH
 NULL     .         -999.2500           : NULL VALUE
 COMP     .                              :
 WELL     .         F02-1               : WELL NAME
 EKB      .M        30.0000             : KELLY BUSHING ELEVATION
 EGL      .M        0.0000              : GROUND LEVEL ELEVATION
 EPD      .M        0.0000              : PERMANENT DATUM ELEVATION
 FLD      .                              :
 LOC      . X = 606554.0000 Y = 6080126.0000: WELL LOCATION
 PROV     .                              :
 SRVC     .                              :
 PROV     .                              :
 DATE     .                              :
 API      .                              :
#
~Curve Information Section
#MNEM     .UNIT               Curve #DESCRIPTION
#-----    -----               ----   --------------
 DEPTH    .M                  : 1     DEPTH
 RHOB     .kg/m3              : 2     Density
 DT       .us/m               : 3     Sonic
 GR       .API                : 4     Gamma Ray
 AI       .(m/s)*(kg/m3)      : 5     P-Impedance
 AI_rel   .(m/s)*(kg/m3)      : 6     P-Impedance_rel
 PHIE     .fraction           : 7     Porosity
~A (ASCII LOG DATA)
# ...
     624.4500          1881.5773           574.8446            40.2944       3273311.0000       -200138.1406             0.4802
     624.6000          1851.8824           574.5410            37.7106       3223193.5000       -200138.1406             0.4988
     624.7500          1827.0078           570.1874            35.3808       3204194.2500       -200138.1406             0.5143
     624.9000          1818.4738           567.8165            34.0675       3202572.5000       -200138.1406             0.5197
     625.0500          1829.3320           566.7101            34.0675       3228031.5000       -161286.9375             0.5129
     625.2000          1838.8059           562.0547            34.5541       3271748.2500        -46186.2734             0.5070
     625.3500          1827.8208           557.1874            36.5075       3280423.7500         45482.8516             0.5139
     625.5000          1791.8451           554.8049            39.0759       3229586.0000         45482.8516             0.5364
     625.6500          1760.8114           550.6843            41.1924       3197487.0000         45482.8516             0.5557
     625.8000          1749.8708           552.7470            43.0397       3166088.7500         45482.8516             0.5626
     625.9500          1708.0424           561.7776            43.0802       3041023.0000         45482.8516             0.5887
     626.1000          1632.6173           572.7576            43.8230       2851219.7500         45482.8516             0.6359
     626.2500          1647.9128           588.1292            46.1522       2801898.2500         45482.8516             0.6263
     626.4000          1702.8596           589.3610            48.4889       2889497.7500         45482.8516             0.5920
     626.5500          1794.5022           583.2413            50.8121       3078081.0000         45482.8516             0.5347
     626.7000          1886.3950           568.9395            53.0154       3316490.0000         45482.8516             0.4772
     626.8500          1938.0233           559.3531            54.0867       3464762.2500         45482.8516             0.4450
     627.0000          1937.3323           560.3859            54.0867       3457139.5000         45482.8516             0.4454
     627.1500          1949.1118           560.0027            53.2968       3480604.5000         45482.8516             0.4381
     627.3000          2004.1313           557.6212            50.1403       3594082.5000         45482.8516             0.4037
     627.4500          1981.0063           552.0862            50.1403       3588148.0000         45482.8516             0.4181
     627.6000          1941.5602           547.6555            50.4044       3545300.0000         45482.8516             0.4428
     627.7500          1965.5360           542.2944            51.9001       3624800.2500         45482.8516             0.4278
     627.9000          2017.7523           533.9760            52.2287       3778803.2500         45482.8516             0.3951
     628.0500          2033.3053           529.6177            53.2643       3839175.5000         45482.8516             0.3854
     628.2000          2000.5833           527.3486            57.1602       3793701.0000         45482.8516             0.4059
     628.3500          2001.1276           522.4380            60.1105       3830361.7500         45482.8516             0.4055
     628.5000          2032.5305           531.8707            61.0352       3821577.2500         47717.0859             0.3859
     628.6500          1958.5000           537.5393            63.0130       3643469.2500         88251.5547             0.4322
     628.8000          1959.2760           543.1295            65.0847       3607389.0000        108839.2969             0.4317
     628.9500          1987.6104           552.8816            66.4378       3595002.2500        108839.2969             0.4140
     629.1000          2017.8000           562.2592            67.8810       3588736.7500        108839.2969             0.3951
     629.2500          2051.7773           560.7862            67.8810       3658752.7500        108839.2969             0.3738
     629.4000          2048.2048           551.4946            67.8810       3713941.5000        108839.2969             0.3761
     629.5500          2038.6908           553.1691            66.7951       3685478.7500        108839.2969             0.3821
     629.7000          2007.8984           560.1677            66.2598       3584528.7500        108839.2969             0.4013
     629.8500          1948.1843           567.7947            66.0797       3431291.0000        108839.2969             0.4386
     630.0000          1951.8235           576.9952            66.0676       3382789.5000        108839.2969             0.4364
     630.1500          1986.1028           576.0082            66.0676       3448071.5000        108839.2969             0.4149
     630.3000          2029.8752           569.3104            68.2198       3565668.5000        108839.2969             0.3876
     630.4500          2049.4307           556.0784            69.7531       3685865.7500        108839.2969             0.3754
     630.6000          2044.8271           537.2028            70.3222       3807035.7500        108839.2969             0.3782
     630.7500          2028.3463           534.6550            70.3908       3793754.5000        108839.2969             0.3885
     630.9000          2012.1251           540.2249            71.4996       3724751.7500        108839.2969             0.3987
     631.0500          1965.3265           563.0184            75.1585       3492774.5000        108839.2969             0.4280
     631.2000          1967.3878           574.9661            76.0083       3421797.2500        108839.2969             0.4266
     631.3500          1993.2928           570.7814            76.0083       3492456.5000        108839.2969             0.4104
     631.5000          2049.4448           551.0821            74.5157       3721133.7500        108839.2969             0.3754
     631.6500          2118.7070           531.0220            73.8423       3991842.7500        108839.2969             0.3321
     631.8000          2136.1279           518.1187            73.0444       4123188.0000        108839.2969             0.3212
     631.9500          2131.4412           512.0431            72.7603       4162663.0000        108839.2969             0.3241
     632.1000          2112.0134           522.3297            71.8025       4044711.5000         74854.2422             0.3362
     632.2500          2080.8633           534.6985            69.5782       3892271.2500         53233.3633             0.3557
     632.4000          2043.2383           537.3701            68.2226       3802259.5000         50268.5234             0.3792
     632.5500          2007.5559           533.0611            67.8390       3766036.0000         50268.5234             0.4015
     632.7000          1965.9413           527.6715            67.3097       3725571.7500         50268.5234             0.4275
     632.8500          1959.3259           521.7915            67.4811       3755241.5000         50268.5234             0.4316
     633.0000          1966.0439           517.4169            67.8843       3799759.2500         50268.5234             0.4274
     633.1500          1962.7046           514.7628            69.3877       3812842.7500         50268.5234             0.4295
     633.3000          1963.2010           509.2487            71.3552       3855362.2500         50268.5234             0.4293
     633.4500          1972.8394           506.7652            72.3624       3892993.0000         50268.5234             0.4233
     633.6000          1988.3253           513.8931            72.6070       3869463.0000         50268.5234             0.4136
     633.7500          2000.8091           530.2928            72.6070       3774349.0000         50268.5234             0.4057
