~VERSION INFORMATION
 VERS.                          2.0   : CWLS LOG ASCII STANDARD - VERSION 2.0
 WRAP.                          NO    : ONE LINE PER DEPTH STEP
#
~Well Information Section
#MNEM     .UNIT     DATA                DESCRIPTION
#-----    -----     --------            --------------
 STRT     .M        48.0000             : START DEPTH
 STOP     .M        1500.0000           : END DEPTH
 STEP     .M        0.1500              : INCREMENT DEPTH
 NULL     .         -999.2500           : NULL VALUE
 COMP     .                              :
 WELL     .         F02-1               : WELL NAME
 EKB      .M        30.0000             : KELLY BUSHING ELEVATION
 EGL      .M        0.0000              : GROUND LEVEL ELEVATION
 EPD      .M        0.0000              : PERMANENT DATUM ELEVATION
 FLD      .                              :
 LOC      . X = 606554.0000 Y = 6080126.0000: WELL LOCATION
 PROV     .                              :
 SRVC     .                              :
 PROV     .                              :
 DATE     .                              :
 API      .                              :
#
~Curve Information Section
#MNEM     .UNIT               Curve #DESCRIPTION
#-----    -----               ----   --------------
 DEPTH    .M                  : 1     DEPTH
 RHOB     .kg/m3              : 2     Density
 DT       .us/m               : 3     Sonic
 GR       .API                : 4     Gamma Ray
 AI       .(m/s)*(kg/m3)      : 5     P-Impedance
 AI_rel   .(m/s)*(kg/m3)      : 6     P-Impedance_rel
 PHIE     .fraction           : 7     Porosity
~A (ASCII LOG DATA)
      48.0000          -999.2500           524.0485          -999.2500       3820257.0000          -455.6956          -999.2500
      48.1500          -999.2500           524.0410          -999.2500       3820311.7500          -455.6956          -999.2500
      48.3000          -999.2500           524.0336          -999.2500       3820366.2500          -455.6956          -999.2500
      48.4500          -999.2500           524.0262          -999.2500       3820419.7500          -455.6956          -999.2500
      48.6000          -999.2500           524.0190          -999.2500       3820472.2500          -455.6956          -999.2500
      48.7500          -999.2500           524.0117          -999.2500       3820525.7500          -455.6956          -999.2500
      48.9000          -999.2500           524.0042          -999.2500       3820580.0000          -455.6956          -999.2500
      49.0500          -999.2500           523.9968          -999.2500       3820634.2500          -455.6956          -999.2500
      49.2000          -999.2500           523.9893          -999.2500       3820688.7500          -455.6956          -999.2500
      49.3500          -999.2500           523.9819          -999.2500       3820742.7500          -455.6956          -999.2500
      49.5000          -999.2500           523.9745          -999.2500       3820796.5000          -455.6956          -999.2500
      49.6500          -999.2500           523.9673          -999.2500       3820849.0000          -455.6956          -999.2500
      49.8000          -999.2500           523.9600          -999.2500       3820902.7500          -455.6956          -999.2500
      49.9500          -999.2500           523.9526          -999.2500       3820956.7500          -455.6956          -999.2500
      50.1000          -999.2500           523.9451             3.0703       3821010.7500          -455.6956          -999.2500
      50.2500          -999.2500           523.9377             2.7441       3821064.7500          -455.6956          -999.2500
      50.4000          -999.2500           523.9304             2.6564       3821118.7500          -455.6956          -999.2500
      50.5500          -999.2500           523.9229             2.6521       3821173.2500          -455.6956          -999.2500
      50.7000          -999.2500           523.9157             2.0320       3821225.5000          -455.6956          -999.2500
      50.8500          -999.2500           523.9084             1.7953       3821279.2500          -455.6956          -999.2500
      51.0000          -999.2500           523.9009             1.4786       3821333.2500          -455.6956          -999.2500
      51.1500          -999.2500           523.8935             1.3392       3821387.5000          -455.6956          -999.2500
      51.3000          -999.2500           523.8860             1.3392       3821441.7500          -455.6956          -999.2500
      51.4500          -999.2500           523.8787             1.7285       3821496.0000          -455.6956          -999.2500
      51.6000          -999.2500           523.8712             2.9567       3821550.5000          -467.6833          -999.2500
      51.7500          -999.2500           523.8640             4.0153       3821603.0000          -483.7122          -999.2500
      51.9000          -999.2500           523.8567             4.4301       3821656.0000          -489.4421          -999.2500
      52.0500          -999.2500           523.8492             4.7036       3821710.5000          -489.4421          -999.2500
      52.2000          -999.2500           523.8419             4.8807       3821764.2500          -489.4421          -999.2500
      52.3500          -999.2500           523.8344             5.1090       3821818.7500          -489.4421          -999.2500
      52.5000          -999.2500           523.8270             5.2881       3821873.0000          -489.4421          -999.2500
      52.6500          -999.2500           523.8196             5.3052       3821927.0000          -489.4421          -999.2500
      52.8000          -999.2500           523.8121             5.3052       3821981.0000          -489.4421          -999.2500
      52.9500          -999.2500           523.8049             5.4608       3822034.2500          -489.4421          -999.2500
      53.1000          -999.2500           523.7976             5.6249       3822087.5000          -489.4421          -999.2500
      53.2500          -999.2500           523.7902             5.3100       3822141.2500          -489.4421          -999.2500
      53.4000          -999.2500           523.7828             4.4738       3822195.2500          -489.4421          -999.2500
      53.5500          -999.2500           523.7753             3.8929       3822249.5000          -489.4421          -999.2500
      53.7000          -999.2500           523.7679             3.8929       3822303.7500          -489.4421          -999.2500
      53.8500          -999.2500           523.7604             4.2950       3822358.2500          -489.4421          -999.2500
      54.0000          -999.2500           523.7532             4.9152       3822411.2500          -489.4421          -999.2500
      54.1500          -999.2500           523.7460             4.9152       3822464.0000          -489.4421          -999.2500
      54.3000          -999.2500           523.7385             4.9395       3822518.5000          -489.4421          -999.2500
      54.4500          -999.2500           523.7311             4.8545       3822572.5000          -489.4421          -999.2500
      54.6000          -999.2500           523.7236             4.5323       3822627.0000          -489.4421          -999.2500
      54.7500          -999.2500           523.7162             4.2718       3822681.0000          -489.4421          -999.2500
      54.9000          -999.2500           523.7089             3.9225       3822735.0000          -489.4421          -999.2500
      55.0500          -999.2500           523.7015             3.8972       3822788.7500          -489.4421          -999.2500
      55.2000          -999.2500           523.6943             3.6836       3822841.0000          -489.4421          -999.2500
      55.3500          -999.2500           523.6869             3.2261       3822895.2500          -483.2274          -999.2500
      55.5000          -999.2500           523.6795             3.1693       3822949.2500          -434.0392          -999.2500
      55.6500          -999.2500           523.6721             3.1693       3823003.5000          -327.9609          -999.2500
      55.8000          -999.2500           523.6646             3.1953       3823058.0000          -327.9609          -999.2500
      55.9500          -999.2500           523.6572             3.3100       3823112.2500          -327.9609          -999.2500
      56.1000          -999.2500           523.6498             3.4477       3823166.2500          -327.9609          -999.2500
      56.2500          -999.2500           523.6427             4.3455       3823218.0000          -327.9609          -999.2500
      56.4000          -999.2500           523.6353             5.5534       3823272.0000          -327.9609          -999.2500
      56.5500          -999.2500           523.6279             6.1277       3823326.2500          -327.9609          -999.2500
      56.7000          -999.2500           523.6204             6.1491       3823380.7500          -327.9609          -999.2500
      56.8500          -999.2500           523.6129             6.3564       3823435.2500          -327.9609          -999.2500
      57.0000          -999.2500           523.6055             6.1211       3823489.2500          -327.9609          -999.2500
      57.1500          -999.2500           523.5981             5.9949       3823543.0000          -327.9609          -999.2500
      57.3000          -999.2500           523.5911             5.7919       3823595.0000          -327.9609          -999.2500
