~VERSION INFORMATION
 VERS.                          2.0   : CWLS LOG ASCII STANDARD - VERSION 2.0
 WRAP.                          NO    : ONE LINE PER DEPTH STEP
#
~Well Information Section
#MNEM     .UNIT     DATA                DESCRIPTION
#-----    -----     --------            --------------
 STRT     .M        48.0000             : START DEPTH
 STOP     .M        1500.0000           : END DEPTH
 STEP     .M        0.1500              : INCREMENT DEPTH
 NULL     .         -999.2500           : NULL VALUE
 COMP     .                              :
 WELL     .         F02-1               : WELL NAME
 EKB      .M        30.0000             : KELLY BUSHING ELEVATION
 EGL      .M        0.0000              : GROUND LEVEL ELEVATION
 EPD      .M        0.0000              : PERMANENT DATUM ELEVATION
 FLD      .                              :
 LOC      . X = 606554.0000 Y = 6080126.0000: WELL LOCATION
 PROV     .                              :
 SRVC     .                              :
 PROV     .                              :
 DATE     .                              :
 API      .                              :
#
~Curve Information Section
#MNEM     .UNIT               Curve #DESCRIPTION
#-----    -----               ----   --------------
 DEPTH    .M                  : 1     DEPTH
 RHOB     .kg/m3              : 2     Density
 DT       .us/m               : 3     Sonic
 GR       .API                : 4     Gamma Ray
 AI       .(m/s)*(kg/m3)      : 5     P-Impedance
 AI_rel   .(m/s)*(kg/m3)      : 6     P-Impedance_rel
 PHIE     .fraction           : 7     Porosity
~A (ASCII LOG DATA)
# ...
    1200.9000          2163.1040           502.9037            81.2806       4301229.5000       -165051.6250             0.3043
    1201.0500          2163.2039           504.6804            77.5093       4286286.5000       -165051.6250             0.3043
    1201.2001          2147.0044           504.5669            73.9340       4255143.0000       -165051.6250             0.3143
    1201.3501          2147.6755           503.6865            72.8887       4263914.5000       -165051.6250             0.3140
    1201.5000          2151.9114           501.6690            72.8212       4289513.5000       -165051.6250             0.3113
    1201.6500          2154.5334           501.8806            72.8212       4292920.5000       -165051.6250             0.3097
    1201.8000          2147.4045           503.3798            73.0600       4265983.5000       -165051.6250             0.3142
    1201.9501          2130.3535           505.4928            75.5199       4214436.5000       -165051.6250             0.3248
    1202.1001          2125.6978           510.1554            76.8803       4166827.5000       -165051.6250             0.3277
    1202.2500          2138.3083           514.9024            79.2963       4152852.2500       -165051.6250             0.3198
    1202.4000          2145.5381           517.8249            80.0425       4143373.2500       -165051.6250             0.3153
    1202.5500          2139.7214           517.6469            82.0723       4133552.0000       -165051.6250             0.3189
    1202.7001          2127.8499           516.5530            82.5630       4119319.7500       -165051.6250             0.3264
    1202.8501          2113.3604           514.8660            82.5630       4104671.2500       -165051.6250             0.3354
    1203.0000          2120.2063           512.2382            78.1982       4139155.0000       -165051.6250             0.3311
    1203.1500          2132.2510           507.5097            76.1867       4201543.5000       -165051.6250             0.3236
    1203.3000          2170.2527           501.6221            75.3322       4326836.5000       -165051.6250             0.2999
    1203.4501          2176.9412           493.4297            74.4294       4412093.5000       -165051.6250             0.2956
    1203.6001          2159.5925           484.8673            74.1585       4454119.0000       -123709.5000             0.3065
    1203.7500          2156.9734           482.4568            74.1585       4470809.5000        -98725.5625             0.3081
    1203.9000          2145.1792           484.2133            74.5004       4430313.0000        -95720.9688             0.3155
    1204.0500          2130.7280           487.8711            74.9120       4367527.0000        -95720.9688             0.3246
    1204.2001          2128.0173           493.3637            75.4524       4313432.5000        -95720.9688             0.3263
    1204.3501          2119.5129           500.2383            75.6966       4237343.5000        -95720.9688             0.3316
    1204.5000          2117.9524           504.9626            75.6966       4194290.0000        -95720.9688             0.3325
    1204.6500          2123.0078           509.2288            75.7642       4169158.2500        -95720.9688             0.3293
    1204.8000          2141.7109           514.2145            75.8145       4164967.0000        -95720.9688             0.3176
    1204.9501          2154.5984           518.9394            76.3368       4152017.5000        -95720.9688             0.3096
    1205.1001          2150.1455           522.8206            76.9858       4112651.0000        -95720.9688             0.3124
    1205.2500          2142.6948           525.4056            77.1796       4078201.7500        -95720.9688             0.3171
    1205.4000          2142.1064           525.0351            77.1796       4079972.7500        -95720.9688             0.3174
    1205.5500          2147.0283           520.5754            76.4071       4124514.0000        -95720.9688             0.3143
    1205.7001          2147.9192           515.9087            73.4714       4163397.2500        -95720.9688             0.3138
    1205.8501          2159.8228           512.6513            70.7990       4213210.0000        -95720.9688             0.3064
    1206.0000          2185.6475           509.1060            69.8647       4293220.5000        -95720.9688             0.2902
    1206.1500          2201.8308           504.3743            69.0900       4365730.0000        -95720.9688             0.2801
    1206.3000          2204.6584           497.5739            68.8680       4430978.0000        -95720.9688             0.2783
    1206.4501          2187.3083           491.3155            68.4652       4451878.5000        -95720.9688             0.2891
    1206.6001          2164.9568           482.4334            68.4206       4488552.5000        -95720.9688             0.3032
    1206.7500          2167.9094           470.1766            68.8099       4611249.0000        -95720.9688             0.3013
    1206.9000          2172.8669           463.3577            68.7870       4689476.0000        -95720.9688             0.2982
    1207.0500          2169.7207           460.2300            68.2426       4714419.0000        -95720.9688             0.3002
    1207.2001          2163.9846           458.9470            69.3314       4715119.0000        -95720.9688             0.3037
    1207.3501          2164.8896           457.7569            69.6036       4729329.5000        -95720.9688             0.3032
    1207.5000          2155.6899           456.5432            70.7594       4721761.5000        -95720.9688             0.3089
    1207.6500          2156.8848           458.5921            72.8171       4703542.0000        -81618.6562             0.3082
    1207.8000          2137.3955           465.3298            74.4067       4593736.5000        -35761.8828             0.3204
    1207.9501          2131.7483           474.4944            75.0856       4492797.5000        -22369.2656             0.3239
    1208.1001          2145.8184           483.2089            76.0897       4441065.5000        -22369.2656             0.3151
    1208.2500          2125.4246           489.7209            76.0897       4340113.5000        -22369.2656             0.3279
    1208.4000          2113.1172           492.2029            75.4896       4293202.0000        -22369.2656             0.3356
    1208.5500          2120.1213           495.2740            72.3748       4280704.0000        -22369.2656             0.3312
    1208.7001          2125.9766           495.5511            71.0351       4290121.0000        -22369.2656             0.3275
    1208.8501          2139.9041           498.0920            70.7044       4296199.5000        -22369.2656             0.3188
    1209.0000          2153.0906           500.1335            69.0985       4305069.0000        -22369.2656             0.3105
    1209.1500          2152.6584           495.5198            68.5912       4344276.5000        -22369.2656             0.3108
    1209.3000          2142.5181           489.5549            68.5912       4376488.0000        -22369.2656             0.3172
    1209.4501          2155.0732           486.4047            68.8111       4430633.0000        -22369.2656             0.3093
    1209.6001          2183.5586           485.0452            71.9085       4501763.5000        -22369.2656             0.2915
    1209.7500          2178.5032           485.2307            73.1472       4489595.5000        -22369.2656             0.2947
    1209.9000          2114.6526           481.1961            73.3140       4394574.5000        -22369.2656             0.3346
    1210.0500          2097.0000           479.7411            73.1414       4371107.5000        -22369.2656             0.3456
    1210.2001          2105.4001           480.6148            73.1414       4380639.5000        -22369.2656             0.3404
