~VERSION INFORMATION
 VERS.                          2.0   : CWLS LOG ASCII STANDARD - VERSION 2.0
 WRAP.                          NO    : ONE LINE PER DEPTH STEP
#
~Well Information Section
#MNEM     .UNIT     DATA                DESCRIPTION
#-----    -----     --------            --------------
 STRT     .M        48.0000             : START DEPTH
 STOP     .M        1500.0000           : END DEPTH
 STEP     .M        0.1500              : INCREMENT DEPTH
 NULL     .         -999.2500           : NULL VALUE
 COMP     .                              :
 WELL     .         F02-1               : WELL NAME
 EKB      .M        30.0000             : KELLY BUSHING ELEVATION
 EGL      .M        0.0000              : GROUND LEVEL ELEVATION
 EPD      .M        0.0000              : PERMANENT DATUM ELEVATION
 FLD      .                              :
 LOC      . X = 606554.0000 Y = 6080126.0000: WELL LOCATION
 PROV     .                              :
 SRVC     .                              :
 PROV     .                              :
 DATE     .                              :
 API      .                              :
#
~Curve Information Section
#MNEM     .UNIT               Curve #DESCRIPTION
#-----    -----               ----   --------------
 DEPTH    .M                  : 1     DEPTH
 RHOB     .kg/m3              : 2     Density
 DT       .us/m               : 3     Sonic
 GR       .API                : 4     Gamma Ray
 AI       .(m/s)*(kg/m3)      : 5     P-Impedance
 AI_rel   .(m/s)*(kg/m3)      : 6     P-Impedance_rel
 PHIE     .fraction           : 7     Porosity
~A (ASCII LOG DATA)
# ...
    1011.9000          2272.3645           419.4487            56.6749       5417579.5000        -15871.9512             0.2360
    1012.0500          2267.0181           419.4018            56.8772       5405370.5000        -15871.9512             0.2394
    1012.2000          2269.6143           419.9393            56.8772       5404623.0000        -15871.9512             0.2378
    1012.3500          2270.2400           420.4943            55.6556       5398981.0000        -15871.9512             0.2373
    1012.5001          2250.2087           422.3168            54.9058       5328338.0000        -15871.9512             0.2498
    1012.6500          2234.3071           426.0121            54.7096       5244867.5000        -15871.9512             0.2598
    1012.8000          2232.9883           428.7411            54.6834       5208264.5000        -15871.9512             0.2606
    1012.9500          2227.7202           431.2104            54.7530       5166266.5000        -15871.9512             0.2639
    1013.1000          2218.8132           431.2629            56.8614       5144915.5000        -15871.9512             0.2695
    1013.2501          2223.9846           429.9429            57.8100       5172778.5000        -15871.9512             0.2662
    1013.4000          2243.3914           429.6821            57.8100       5221040.5000        -15871.9512             0.2541
    1013.5500          2247.8860           433.0818            56.9620       5190647.0000        -15871.9512             0.2513
    1013.7000          2235.7090           437.3845            56.4529       5111715.0000        -15871.9512             0.2589
    1013.8500          2237.5911           440.0659            56.0747       5084666.0000        -15871.9512             0.2578
    1014.0001          2235.1616           440.9788            55.0713       5068641.0000        -15871.9512             0.2593
    1014.1500          2224.8389           439.3954            52.7132       5063430.0000        -15871.9512             0.2657
    1014.3000          2226.3220           436.5524            51.3520       5099871.0000        -15871.9512             0.2648
    1014.4500          2237.7205           434.6957            51.3520       5147813.5000        -15871.9512             0.2577
    1014.6000          2248.2834           432.6253            51.3785       5196934.5000        -15871.9512             0.2511
    1014.7501          2248.0325           427.9659            52.6817       5253043.0000        -15871.9512             0.2512
    1014.9000          2261.6235           421.8915            54.8558       5361261.0000        -15871.9512             0.2427
    1015.0500          2273.8472           416.0398            56.2552       5465616.0000        -35307.2266             0.2351
    1015.2000          2270.3411           413.0635            56.7006       5496348.5000        -69482.7422             0.2373
    1015.3500          2278.0776           413.4599            56.7006       5509784.5000        -84474.2188             0.2325
    1015.5001          2280.6812           414.5201            56.6136       5502007.0000        -84474.2188             0.2308
    1015.6500          2269.8462           416.3701            56.3512       5451623.5000        -84474.2188             0.2376
    1015.8000          2253.8552           419.2802            55.5812       5375695.0000        -84474.2188             0.2476
    1015.9500          2237.1738           422.2719            53.6541       5298045.0000        -84474.2188             0.2580
    1016.1000          2226.9121           424.8692            51.9251       5241451.5000        -84474.2188             0.2644
    1016.2501          2234.4709           426.9966            51.9251       5232992.0000        -84474.2188             0.2597
    1016.4000          2240.6328           427.2561            52.2868       5244240.5000        -84474.2188             0.2558
    1016.5500          2246.1436           428.3077            53.1518       5244208.5000        -84474.2188             0.2524
    1016.7000          2257.1904           430.5894            53.6628       5242137.5000        -84474.2188             0.2455
    1016.8500          2254.7527           432.6896            54.6626       5211023.5000        -84474.2188             0.2470
    1017.0001          2255.5967           436.1660            56.0528       5171805.0000        -84474.2188             0.2465
    1017.1500          2239.4785           441.6575            56.2453       5070662.0000        -84474.2188             0.2566
    1017.3000          2232.4995           443.0021            56.5835       5039474.0000        -84474.2188             0.2610
    1017.4500          2227.3884           441.0388            57.7157       5050424.0000        -84474.2188             0.2642
    1017.6000          2239.1780           436.8880            58.2360       5125540.0000        -84474.2188             0.2568
    1017.7501          2251.5598           431.8159            58.1654       5214161.0000        -84474.2188             0.2490
    1017.9000          2263.6790           432.5717            57.8179       5233134.0000        -84474.2188             0.2414
    1018.0500          2246.0911           435.1854            57.5437       5161301.0000        -84474.2188             0.2524
    1018.2000          2230.8274           437.7489            57.3599       5096133.0000        -84474.2188             0.2620
    1018.3500          2223.7876           436.8994            56.8515       5089966.5000        -84474.2188             0.2664
    1018.5001          2219.3049           433.3753            56.6515       5120974.5000        -84474.2188             0.2692
    1018.6500          2229.4915           434.1272            56.8849       5135567.5000        -84474.2188             0.2628
    1018.8000          2242.9204           434.9774            56.8211       5156441.0000        -84474.2188             0.2544
    1018.9500          2219.8262           437.4048            56.0874       5075014.5000        -84474.2188             0.2688
    1019.1000          2213.5662           440.2771            56.0674       5027661.5000        -86435.5000             0.2727
    1019.2501          2193.0808           439.2925            56.0674       4992301.5000       -126780.6172             0.2855
    1019.4000          2209.5955           439.5117            56.1192       5027388.5000       -137831.1250             0.2753
    1019.5500          2201.9041           440.7314            59.9263       4996022.0000       -137831.1250             0.2801
    1019.7000          2212.1001           440.2772            60.5237       5024334.5000       -137831.1250             0.2737
    1019.8500          2207.6604           440.1082            60.5237       5016176.0000       -137831.1250             0.2765
    1020.0001          2210.9849           439.2201            60.5237       5033889.5000       -137831.1250             0.2744
    1020.1500          2230.6489           436.7334            61.5641       5107596.5000       -137831.1250             0.2621
    1020.3000          2252.8879           437.9347            61.7995       5144339.5000       -137831.1250             0.2481
    1020.4500          2253.0195           441.8764            61.6305       5098791.5000       -137831.1250             0.2481
    1020.6000          2241.9270           440.2654            61.6147       5092216.5000       -137831.1250             0.2551
    1020.7501          2243.4604           434.7602            60.4988       5160331.0000       -137831.1250             0.2541
    1020.9000          2249.0430           423.2422            59.8441       5314381.0000       -137831.1250             0.2506
    1021.0500          2237.5945           420.2400            59.5290       5324556.5000       -137831.1250             0.2578
    1021.2000          2238.6938           424.6030            56.5742       5272543.5000       -137831.1250             0.2571
