~VERSION INFORMATION
 VERS.                          2.0   : CWLS LOG ASCII STANDARD - VERSION 2.0
 WRAP.                          NO    : ONE LINE PER DEPTH STEP
#
~Well Information Section
#MNEM     .UNIT     DATA                DESCRIPTION
#-----    -----     --------            --------------
 STRT     .M        48.0000             : START DEPTH
 STOP     .M        1500.0000           : END DEPTH
 STEP     .M        0.1500              : INCREMENT DEPTH
 NULL     .         -999.2500           : NULL VALUE
 COMP     .                              :
 WELL     .         F02-1               : WELL NAME
 EKB      .M        30.0000             : KELLY BUSHING ELEVATION
 EGL      .M        0.0000              : GROUND LEVEL ELEVATION
 EPD      .M        0.0000              : PERMANENT DATUM ELEVATION
 FLD      .                              :
 LOC      . X = 606554.0000 Y = 6080126.0000: WELL LOCATION
 PROV     .                              :
 SRVC     .                              :
 PROV     .                              :
 DATE     .                              :
 API      .                              :
#
~Curve Information Section
#MNEM     .UNIT               Curve #DESCRIPTION
#-----    -----               ----   --------------
 DEPTH    .M                  : 1     DEPTH
 RHOB     .kg/m3              : 2     Density
 DT       .us/m               : 3     Sonic
 GR       .API                : 4     Gamma Ray
 AI       .(m/s)*(kg/m3)      : 5     P-Impedance
 AI_rel   .(m/s)*(kg/m3)      : 6     P-Impedance_rel
 PHIE     .fraction           : 7     Porosity
~A (ASCII LOG DATA)
# ...
     529.9500          1371.5754           661.6286            16.3164       2073028.5000       -587263.1250          -999.2500
     530.1000          1367.4149           660.9614            16.9181       2068826.6250       -587263.1250          -999.2500
     530.2500          1365.4703           660.6544            18.5126       2066846.5000       -587263.1250          -999.2500
     530.4000          1369.6522           659.8610            20.2234       2075673.1250       -587263.1250          -999.2500
     530.5500          1372.5018           658.5422            20.2234       2084152.1250       -587263.1250          -999.2500
     530.7000          1369.4313           657.2058            19.9019       2083716.1250       -587263.1250          -999.2500
     530.8500          1363.8474           656.3098            19.2396       2078052.7500       -587263.1250          -999.2500
     531.0000          1359.9325           655.8726            19.2396       2073471.2500       -587263.1250          -999.2500
     531.1500          1364.5818           655.6390            19.5932       2081301.2500       -587263.1250          -999.2500
     531.3000          1370.2344           655.3625            21.0029       2090804.3750       -587263.1250          -999.2500
     531.4500          1375.2072           655.0794            22.5765       2099299.2500       -587263.1250          -999.2500
     531.6000          1378.4293           654.7911            23.3665       2105143.2500       -587263.1250          -999.2500
     531.7500          1374.6844           654.7230            24.2507       2099643.5000       -587263.1250          -999.2500
     531.9000          1368.8790           655.0597            25.1690       2089702.3750       -580930.0000          -999.2500
     532.0500          1363.6748           655.6693            25.2306       2079822.2500       -520963.5312          -999.2500
     532.2000          1364.5006           657.6440            25.2306       2074846.8750       -370419.5625          -999.2500
     532.3500          1367.7056           662.2261            25.2306       2065316.0000       -370419.5625          -999.2500
     532.5000          1371.2662           661.4094            25.3198       2073251.6250       -370419.5625          -999.2500
     532.6500          1368.7880           658.4805            25.9665       2078710.8750       -370419.5625          -999.2500
     532.8000          1367.3773           654.9286            26.7920       2087842.8750       -370419.5625          -999.2500
     532.9500          1380.5603           650.4805            29.5344       2122483.7500       -370419.5625          -999.2500
     533.1000          1447.0717           643.6130            29.5344       2248394.5000       -370419.5625          -999.2500
     533.2500          1510.9441           640.3422            29.4950       2359656.2500       -370419.5625          -999.2500
     533.4000          1582.2208           634.0026            28.7962       2495705.5000       -370419.5625          -999.2500
     533.5500          1654.1704           623.8345            28.7962       2651661.0000       -370419.5625          -999.2500
     533.7000          1652.9775           608.5104            28.7970       2716438.2500       -370419.5625          -999.2500
     533.8500          1635.4000           594.4619            28.9057       2751059.5000       -370419.5625          -999.2500
     534.0000          1613.9407           593.1708            28.9057       2720869.7500       -370419.5625          -999.2500
     534.1500          1634.0416           593.2897            28.9057       2754204.5000       -370419.5625          -999.2500
     534.3000          1673.7733           591.7532            27.6009       2828506.7500       -370419.5625          -999.2500
     534.4500          1706.1804           581.8055            25.8930       2932657.5000       -370419.5625          -999.2500
     534.6000          1744.8782           568.8832            24.2591       3067420.7500       -370419.5625          -999.2500
     534.7500          1761.4143           557.6463            22.2384       3158799.5000       -370419.5625          -999.2500
     534.9000          1750.2816           553.4433            22.0591       3162528.2500       -370419.5625          -999.2500
     535.0500          1721.1685           553.2390            22.0591       3111078.2500       -370419.5625          -999.2500
     535.2000          1675.0081           554.3144            22.2346       3021789.2500       -370419.5625          -999.2500
     535.3500          1609.1517           558.1666            22.2616       2883074.7500       -279592.7812          -999.2500
     535.5000          1539.3022           561.2211            22.2616       2742873.2500       -119110.6953          -999.2500
     535.6500          1437.7971           551.0928            20.4636       2608502.7500        -90347.3594          -999.2500
     535.8000          1390.7919           536.4654            19.2996       2592564.0000        -90347.3594          -999.2500
     535.9500          1387.3486           527.5569            19.1121       2629866.2500        -90347.3594          -999.2500
     536.1000          1385.5925           521.0995            19.1121       2659034.7500        -90347.3594          -999.2500
     536.2500          1369.3562           516.8330            19.6004       2649486.2500        -90347.3594          -999.2500
     536.4000          1365.1068           509.0908            21.9287       2681641.7500        -90347.3594          -999.2500
     536.5500          1367.2002           507.1621            22.7678       2695784.7500        -90347.3594          -999.2500
     536.7000          1369.5261           509.5451            22.9095       2687756.7500        -90347.3594          -999.2500
     536.8500          1372.3976           513.0579            22.9599       2674959.0000        -90347.3594          -999.2500
     537.0000          1381.7526           518.8441            23.6014       2663168.5000        -90347.3594          -999.2500
     537.1500          1396.9073           523.5043            24.9312       2668356.2500        -90347.3594          -999.2500
     537.3000          1444.3591           527.6125            27.0956       2737345.0000        -90347.3594          -999.2500
     537.4500          1504.2413           531.7887            30.0344       2828485.0000        -90347.3594          -999.2500
     537.6000          1542.3281           535.9382            31.8916       2877758.0000        -90347.3594          -999.2500
     537.7500          1561.6230           544.4284            32.6999       2868542.2500        -90347.3594          -999.2500
     537.9000          1581.8160           551.9160            33.0367       2866003.0000        -90347.3594          -999.2500
     538.0500          1608.3099           554.9651            33.4407       2898006.0000        -90347.3594          -999.2500
     538.2000          1633.7642           556.5334            35.1371       2935585.0000        -90347.3594          -999.2500
     538.3500          1676.0057           557.7705            37.0680       3004782.7500        -90347.3594          -999.2500
     538.5000          1695.9277           561.3900            38.6137       3021111.0000        -90347.3594          -999.2500
     538.6500          1681.4366           566.4022            40.3680       2968709.7500        -90347.3594          -999.2500
     538.8000          1661.0662           568.1938            42.3668       2923401.2500        -90347.3594          -999.2500
     538.9500          1640.5112           567.1372            44.7936       2892608.5000        -90347.3594          -999.2500
     539.1000          1642.7001           566.7805            47.1018       2898287.5000        -37122.0547          -999.2500
     539.2500          1671.1984           568.8089            48.1246       2937987.7500         46826.2969          -999.2500
